{"attribution":"MTA GTFS static feed; © Metropolitan Transportation Authority","fetched":"2026-07-02","stations":[{"name":"Van Cortlandt Park-242 St","lat":40.889248,"lng":-73.898583},{"name":"238 St","lat":40.884667,"lng":-73.90087},{"name":"231 St","lat":40.878856,"lng":-73.904834},{"name":"Marble Hill-225 St","lat":40.874561,"lng":-73.909831},{"name":"215 St","lat":40.869444,"lng":-73.915279},{"name":"207 St","lat":40.864621,"lng":-73.918822},{"name":"Dyckman St","lat":40.860531,"lng":-73.925536},{"name":"191 St","lat":40.855225,"lng":-73.929412},{"name":"181 St","lat":40.849505,"lng":-73.933596},{"name":"168 St-Washington Hts","lat":40.840556,"lng":-73.940133},{"name":"157 St","lat":40.834041,"lng":-73.94489},{"name":"145 St","lat":40.826551,"lng":-73.95036},{"name":"137 St-City College","lat":40.822008,"lng":-73.953676},{"name":"125 St","lat":40.815581,"lng":-73.958372},{"name":"116 St-Columbia University","lat":40.807722,"lng":-73.96411},{"name":"Cathedral Pkwy (110 St)","lat":40.803967,"lng":-73.966847},{"name":"103 St","lat":40.799446,"lng":-73.968379},{"name":"96 St","lat":40.793919,"lng":-73.972323},{"name":"86 St","lat":40.788644,"lng":-73.976218},{"name":"79 St","lat":40.783934,"lng":-73.979917},{"name":"72 St","lat":40.778453,"lng":-73.98197},{"name":"66 St-Lincoln Center","lat":40.77344,"lng":-73.982209},{"name":"59 St-Columbus Circle","lat":40.768247,"lng":-73.981929},{"name":"50 St","lat":40.761728,"lng":-73.983849},{"name":"Times Sq-42 St","lat":40.75529,"lng":-73.987495},{"name":"34 St-Penn Station","lat":40.750373,"lng":-73.991057},{"name":"28 St","lat":40.747215,"lng":-73.993365},{"name":"23 St","lat":40.744081,"lng":-73.995657},{"name":"18 St","lat":40.74104,"lng":-73.997871},{"name":"14 St","lat":40.737826,"lng":-74.000201},{"name":"Christopher St-Stonewall","lat":40.733422,"lng":-74.002906},{"name":"Houston St","lat":40.728251,"lng":-74.005367},{"name":"Canal St","lat":40.722854,"lng":-74.006277},{"name":"Franklin St","lat":40.719318,"lng":-74.006886},{"name":"Chambers St","lat":40.715478,"lng":-74.009266},{"name":"WTC Cortlandt","lat":40.711835,"lng":-74.012188},{"name":"Rector St","lat":40.707513,"lng":-74.013783},{"name":"South Ferry","lat":40.702068,"lng":-74.013664},{"name":"Wakefield-241 St","lat":40.903125,"lng":-73.85062},{"name":"Nereid Av","lat":40.898379,"lng":-73.854376},{"name":"233 St","lat":40.893193,"lng":-73.857473},{"name":"225 St","lat":40.888022,"lng":-73.860341},{"name":"219 St","lat":40.883895,"lng":-73.862633},{"name":"Gun Hill Rd","lat":40.87785,"lng":-73.866256},{"name":"Burke Av","lat":40.871356,"lng":-73.867164},{"name":"Allerton Av","lat":40.865462,"lng":-73.867352},{"name":"Pelham Pkwy","lat":40.857192,"lng":-73.867615},{"name":"Bronx Park East","lat":40.848828,"lng":-73.868457},{"name":"E 180 St","lat":40.841894,"lng":-73.873488},{"name":"West Farms Sq-E Tremont Av","lat":40.840295,"lng":-73.880049},{"name":"174 St","lat":40.837288,"lng":-73.887734},{"name":"Freeman St","lat":40.829993,"lng":-73.891865},{"name":"Simpson St","lat":40.824073,"lng":-73.893064},{"name":"Intervale Av","lat":40.822181,"lng":-73.896736},{"name":"Prospect Av","lat":40.819585,"lng":-73.90177},{"name":"Jackson Av","lat":40.81649,"lng":-73.907807},{"name":"3 Av-149 St","lat":40.816109,"lng":-73.917757},{"name":"149 St-Grand Concourse","lat":40.81841,"lng":-73.926718},{"name":"135 St","lat":40.814229,"lng":-73.94077},{"name":"125 St","lat":40.807754,"lng":-73.945495},{"name":"116 St","lat":40.802098,"lng":-73.949625},{"name":"110 St-Malcolm X Plaza","lat":40.799075,"lng":-73.951822},{"name":"Park Place","lat":40.713051,"lng":-74.008811},{"name":"Fulton St","lat":40.709416,"lng":-74.006571},{"name":"Wall St","lat":40.706821,"lng":-74.0091},{"name":"Clark St","lat":40.697466,"lng":-73.993086},{"name":"Borough Hall","lat":40.693219,"lng":-73.989998},{"name":"Hoyt St","lat":40.690545,"lng":-73.985065},{"name":"Nevins St","lat":40.688246,"lng":-73.980492},{"name":"Atlantic Av-Barclays Ctr","lat":40.684359,"lng":-73.977666},{"name":"Bergen St","lat":40.680829,"lng":-73.975098},{"name":"Grand Army Plaza","lat":40.675235,"lng":-73.971046},{"name":"Eastern Pkwy-Brooklyn Museum","lat":40.671987,"lng":-73.964375},{"name":"Franklin Av-Medgar Evers College","lat":40.670682,"lng":-73.958131},{"name":"President St-Medgar Evers College","lat":40.667883,"lng":-73.950683},{"name":"Sterling St","lat":40.662742,"lng":-73.95085},{"name":"Winthrop St","lat":40.656652,"lng":-73.9502},{"name":"Church Av","lat":40.650843,"lng":-73.949575},{"name":"Beverly Rd","lat":40.645098,"lng":-73.948959},{"name":"Newkirk Av-Little Haiti","lat":40.639967,"lng":-73.948411},{"name":"Flatbush Av-Brooklyn College","lat":40.632836,"lng":-73.947642},{"name":"Nostrand Av","lat":40.669847,"lng":-73.950466},{"name":"Kingston Av","lat":40.669399,"lng":-73.942161},{"name":"Crown Hts-Utica Av","lat":40.668897,"lng":-73.932942},{"name":"Sutter Av-Rutland Rd","lat":40.664717,"lng":-73.92261},{"name":"Saratoga Av","lat":40.661453,"lng":-73.916327},{"name":"Rockaway Av","lat":40.662549,"lng":-73.908946},{"name":"Junius St","lat":40.663515,"lng":-73.902447},{"name":"Pennsylvania Av","lat":40.664635,"lng":-73.894895},{"name":"Van Siclen Av","lat":40.665449,"lng":-73.889395},{"name":"New Lots Av","lat":40.666235,"lng":-73.884079},{"name":"Harlem-148 St","lat":40.82388,"lng":-73.93647},{"name":"145 St","lat":40.820421,"lng":-73.936245},{"name":"Woodlawn","lat":40.886037,"lng":-73.878751},{"name":"Mosholu Pkwy","lat":40.87975,"lng":-73.884655},{"name":"Bedford Park Blvd-Lehman College","lat":40.873412,"lng":-73.890064},{"name":"Kingsbridge Rd","lat":40.86776,"lng":-73.897174},{"name":"Fordham Rd","lat":40.862803,"lng":-73.901034},{"name":"183 St","lat":40.858407,"lng":-73.903879},{"name":"Burnside Av","lat":40.853453,"lng":-73.907684},{"name":"176 St","lat":40.84848,"lng":-73.911794},{"name":"Mt Eden Av","lat":40.844434,"lng":-73.914685},{"name":"170 St","lat":40.840075,"lng":-73.917791},{"name":"167 St","lat":40.835537,"lng":-73.9214},{"name":"161 St-Yankee Stadium","lat":40.827994,"lng":-73.925831},{"name":"149 St-Grand Concourse","lat":40.818375,"lng":-73.927351},{"name":"138 St-Grand Concourse","lat":40.813224,"lng":-73.929849},{"name":"Fulton St","lat":40.710368,"lng":-74.009509},{"name":"Wall St","lat":40.707557,"lng":-74.011862},{"name":"Bowling Green","lat":40.704817,"lng":-74.014065},{"name":"Borough Hall","lat":40.692404,"lng":-73.990151},{"name":"Eastchester-Dyre Av","lat":40.8883,"lng":-73.830834},{"name":"Baychester Av","lat":40.878663,"lng":-73.838591},{"name":"Gun Hill Rd","lat":40.869526,"lng":-73.846384},{"name":"Pelham Pkwy","lat":40.858985,"lng":-73.855359},{"name":"Morris Park","lat":40.854364,"lng":-73.860495},{"name":"Pelham Bay Park","lat":40.852462,"lng":-73.828121},{"name":"Buhre Av","lat":40.84681,"lng":-73.832569},{"name":"Middletown Rd","lat":40.843863,"lng":-73.836322},{"name":"Westchester Sq-E Tremont Av","lat":40.839892,"lng":-73.842952},{"name":"Zerega Av","lat":40.836488,"lng":-73.847036},{"name":"Castle Hill Av","lat":40.834255,"lng":-73.851222},{"name":"Parkchester","lat":40.833226,"lng":-73.860816},{"name":"St Lawrence Av","lat":40.831509,"lng":-73.867618},{"name":"Morrison Av-Soundview","lat":40.829521,"lng":-73.874516},{"name":"Elder Av","lat":40.828584,"lng":-73.879159},{"name":"Whitlock Av","lat":40.826525,"lng":-73.886283},{"name":"Hunts Point Av","lat":40.820948,"lng":-73.890549},{"name":"Longwood Av","lat":40.816104,"lng":-73.896435},{"name":"E 149 St","lat":40.812118,"lng":-73.904098},{"name":"E 143 St-St Mary's St","lat":40.808719,"lng":-73.907657},{"name":"Cypress Av","lat":40.805368,"lng":-73.914042},{"name":"Brook Av","lat":40.807566,"lng":-73.91924},{"name":"3 Av-138 St","lat":40.810476,"lng":-73.926138},{"name":"125 St","lat":40.804138,"lng":-73.937594},{"name":"116 St","lat":40.798629,"lng":-73.941617},{"name":"110 St","lat":40.79502,"lng":-73.94425},{"name":"103 St","lat":40.7906,"lng":-73.947478},{"name":"96 St","lat":40.785672,"lng":-73.95107},{"name":"86 St","lat":40.779492,"lng":-73.955589},{"name":"77 St","lat":40.77362,"lng":-73.959874},{"name":"68 St-Hunter College","lat":40.768141,"lng":-73.96387},{"name":"59 St","lat":40.762526,"lng":-73.967967},{"name":"51 St","lat":40.757107,"lng":-73.97192},{"name":"Grand Central-42 St","lat":40.751776,"lng":-73.976848},{"name":"33 St","lat":40.746081,"lng":-73.982076},{"name":"28 St","lat":40.74307,"lng":-73.984264},{"name":"23 St-Baruch College","lat":40.739864,"lng":-73.986599},{"name":"14 St-Union Sq","lat":40.734673,"lng":-73.989951},{"name":"Astor Pl","lat":40.730054,"lng":-73.99107},{"name":"Bleecker St","lat":40.725915,"lng":-73.994659},{"name":"Spring St","lat":40.722301,"lng":-73.997141},{"name":"Canal St","lat":40.718803,"lng":-74.000193},{"name":"Brooklyn Bridge-City Hall","lat":40.713065,"lng":-74.004131},{"name":"Flushing-Main St","lat":40.7596,"lng":-73.83003},{"name":"Mets-Willets Point","lat":40.754622,"lng":-73.845625},{"name":"111 St","lat":40.75173,"lng":-73.855334},{"name":"103 St-Corona Plaza","lat":40.749865,"lng":-73.8627},{"name":"Junction Blvd","lat":40.749145,"lng":-73.869527},{"name":"90 St-Elmhurst Av","lat":40.748408,"lng":-73.876613},{"name":"82 St-Jackson Hts","lat":40.747659,"lng":-73.883697},{"name":"74 St-Broadway","lat":40.746848,"lng":-73.891394},{"name":"69 St","lat":40.746325,"lng":-73.896403},{"name":"61 St-Woodside","lat":40.74563,"lng":-73.902984},{"name":"52 St","lat":40.744149,"lng":-73.912549},{"name":"46 St-Bliss St","lat":40.743132,"lng":-73.918435},{"name":"40 St-Lowery St","lat":40.743781,"lng":-73.924016},{"name":"33 St-Rawson St","lat":40.744587,"lng":-73.930997},{"name":"Queensboro Plaza","lat":40.750582,"lng":-73.940202},{"name":"Court Sq","lat":40.747023,"lng":-73.945264},{"name":"Hunters Point Av","lat":40.742216,"lng":-73.948916},{"name":"Vernon Blvd-Jackson Av","lat":40.742626,"lng":-73.953581},{"name":"Grand Central-42 St","lat":40.751431,"lng":-73.976041},{"name":"5 Av","lat":40.753821,"lng":-73.981963},{"name":"Times Sq-42 St","lat":40.755477,"lng":-73.987691},{"name":"34 St-Hudson Yards","lat":40.755882,"lng":-74.00191},{"name":"Grand Central-42 St","lat":40.752769,"lng":-73.979189},{"name":"Times Sq-42 St","lat":40.755983,"lng":-73.986229},{"name":"Inwood-207 St","lat":40.868072,"lng":-73.919899},{"name":"Dyckman St","lat":40.865491,"lng":-73.927271},{"name":"190 St","lat":40.859022,"lng":-73.93418},{"name":"181 St","lat":40.851695,"lng":-73.937969},{"name":"175 St","lat":40.847391,"lng":-73.939704},{"name":"168 St","lat":40.840719,"lng":-73.939561},{"name":"163 St-Amsterdam Av","lat":40.836013,"lng":-73.939892},{"name":"155 St","lat":40.830518,"lng":-73.941514},{"name":"145 St","lat":40.824783,"lng":-73.944216},{"name":"135 St","lat":40.817894,"lng":-73.947649},{"name":"125 St","lat":40.811109,"lng":-73.952343},{"name":"116 St","lat":40.805085,"lng":-73.954882},{"name":"Cathedral Pkwy (110 St)","lat":40.800603,"lng":-73.958161},{"name":"103 St","lat":40.796092,"lng":-73.961454},{"name":"96 St","lat":40.791642,"lng":-73.964696},{"name":"86 St","lat":40.785868,"lng":-73.968916},{"name":"81 St-Museum of Natural History","lat":40.781433,"lng":-73.972143},{"name":"72 St","lat":40.775594,"lng":-73.97641},{"name":"59 St-Columbus Circle","lat":40.768296,"lng":-73.981736},{"name":"50 St","lat":40.762456,"lng":-73.985984},{"name":"42 St-Port Authority Bus Terminal","lat":40.757308,"lng":-73.989735},{"name":"34 St-Penn Station","lat":40.752287,"lng":-73.993391},{"name":"23 St","lat":40.745906,"lng":-73.998041},{"name":"14 St","lat":40.740893,"lng":-74.00169},{"name":"W 4 St-Wash Sq","lat":40.732338,"lng":-74.000495},{"name":"Spring St","lat":40.726227,"lng":-74.003739},{"name":"Canal St","lat":40.720824,"lng":-74.005229},{"name":"Chambers St","lat":40.714111,"lng":-74.008585},{"name":"Fulton St","lat":40.710197,"lng":-74.007691},{"name":"High St","lat":40.699337,"lng":-73.990531},{"name":"Jay St-MetroTech","lat":40.692338,"lng":-73.987342},{"name":"Hoyt-Schermerhorn Sts","lat":40.688484,"lng":-73.985001},{"name":"Lafayette Av","lat":40.686113,"lng":-73.973946},{"name":"Clinton-Washington Avs","lat":40.683263,"lng":-73.965838},{"name":"Franklin Av","lat":40.68138,"lng":-73.956848},{"name":"Nostrand Av","lat":40.680438,"lng":-73.950426},{"name":"Kingston-Throop Avs","lat":40.679921,"lng":-73.940858},{"name":"Utica Av","lat":40.679364,"lng":-73.930729},{"name":"Ralph Av","lat":40.678822,"lng":-73.920786},{"name":"Rockaway Av","lat":40.67834,"lng":-73.911946},{"name":"Broadway Junction","lat":40.678334,"lng":-73.905316},{"name":"Liberty Av","lat":40.674542,"lng":-73.896548},{"name":"Van Siclen Av","lat":40.67271,"lng":-73.890358},{"name":"Shepherd Av","lat":40.67413,"lng":-73.88075},{"name":"Euclid Av","lat":40.675377,"lng":-73.872106},{"name":"Grant Av","lat":40.677044,"lng":-73.86505},{"name":"80 St","lat":40.679371,"lng":-73.858992},{"name":"88 St","lat":40.679843,"lng":-73.85147},{"name":"Rockaway Blvd","lat":40.680429,"lng":-73.843853},{"name":"104 St","lat":40.681711,"lng":-73.837683},{"name":"111 St","lat":40.684331,"lng":-73.832163},{"name":"Ozone Park-Lefferts Blvd","lat":40.685951,"lng":-73.825798},{"name":"21 St-Queensbridge","lat":40.754203,"lng":-73.942836},{"name":"Roosevelt Island","lat":40.759145,"lng":-73.95326},{"name":"Lexington Av/63 St","lat":40.764629,"lng":-73.966113},{"name":"57 St","lat":40.763972,"lng":-73.97745},{"name":"9 Av","lat":40.646292,"lng":-73.994324},{"name":"Fort Hamilton Pkwy","lat":40.640914,"lng":-73.994304},{"name":"50 St","lat":40.63626,"lng":-73.994791},{"name":"55 St","lat":40.631435,"lng":-73.995476},{"name":"62 St","lat":40.626472,"lng":-73.996895},{"name":"71 St","lat":40.619589,"lng":-73.998864},{"name":"79 St","lat":40.613501,"lng":-74.00061},{"name":"18 Av","lat":40.607954,"lng":-74.001736},{"name":"20 Av","lat":40.604556,"lng":-73.998168},{"name":"Bay Pkwy","lat":40.601875,"lng":-73.993728},{"name":"25 Av","lat":40.597704,"lng":-73.986829},{"name":"Bay 50 St","lat":40.588841,"lng":-73.983765},{"name":"Norwood-205 St","lat":40.874811,"lng":-73.878855},{"name":"Bedford Park Blvd","lat":40.873244,"lng":-73.887138},{"name":"Kingsbridge Rd","lat":40.866978,"lng":-73.893509},{"name":"Fordham Rd","lat":40.861296,"lng":-73.897749},{"name":"182-183 Sts","lat":40.856093,"lng":-73.900741},{"name":"Tremont Av","lat":40.85041,"lng":-73.905227},{"name":"174-175 Sts","lat":40.8459,"lng":-73.910136},{"name":"170 St","lat":40.839306,"lng":-73.9134},{"name":"167 St","lat":40.833771,"lng":-73.91844},{"name":"161 St-Yankee Stadium","lat":40.827905,"lng":-73.925651},{"name":"155 St","lat":40.830135,"lng":-73.938209},{"name":"145 St","lat":40.824783,"lng":-73.944216},{"name":"7 Av","lat":40.762862,"lng":-73.981637},{"name":"47-50 Sts-Rockefeller Ctr","lat":40.758663,"lng":-73.981329},{"name":"42 St-Bryant Pk","lat":40.754222,"lng":-73.984569},{"name":"34 St-Herald Sq","lat":40.749719,"lng":-73.987823},{"name":"23 St","lat":40.742878,"lng":-73.992821},{"name":"14 St","lat":40.738228,"lng":-73.996209},{"name":"W 4 St-Wash Sq","lat":40.732338,"lng":-74.000495},{"name":"Broadway-Lafayette St","lat":40.725297,"lng":-73.996204},{"name":"Grand St","lat":40.718267,"lng":-73.993753},{"name":"Atlantic Av-Barclays Ctr","lat":40.68446,"lng":-73.97689},{"name":"7 Av","lat":40.67705,"lng":-73.972367},{"name":"Prospect Park","lat":40.661614,"lng":-73.962246},{"name":"Parkside Av","lat":40.655292,"lng":-73.961495},{"name":"Church Av","lat":40.650527,"lng":-73.962982},{"name":"Beverley Rd","lat":40.644031,"lng":-73.964492},{"name":"Cortelyou Rd","lat":40.640927,"lng":-73.963891},{"name":"Newkirk Plaza","lat":40.635082,"lng":-73.962793},{"name":"Avenue H","lat":40.62927,"lng":-73.961639},{"name":"Avenue J","lat":40.625039,"lng":-73.960803},{"name":"Avenue M","lat":40.617618,"lng":-73.959399},{"name":"Kings Hwy","lat":40.60867,"lng":-73.957734},{"name":"Avenue U","lat":40.5993,"lng":-73.955929},{"name":"Neck Rd","lat":40.595246,"lng":-73.955161},{"name":"Sheepshead Bay","lat":40.586896,"lng":-73.954155},{"name":"Brighton Beach","lat":40.577621,"lng":-73.961376},{"name":"Ocean Pkwy","lat":40.576312,"lng":-73.968501},{"name":"W 8 St-NY Aquarium","lat":40.576127,"lng":-73.975939},{"name":"Coney Island-Stillwell Av","lat":40.577422,"lng":-73.981233},{"name":"World Trade Center","lat":40.712582,"lng":-74.009781},{"name":"Jamaica-179 St","lat":40.712646,"lng":-73.783817},{"name":"169 St","lat":40.71047,"lng":-73.793604},{"name":"Parsons Blvd","lat":40.707564,"lng":-73.803326},{"name":"Sutphin Blvd","lat":40.70546,"lng":-73.810708},{"name":"Briarwood","lat":40.709179,"lng":-73.820574},{"name":"Kew Gardens-Union Tpke","lat":40.714441,"lng":-73.831008},{"name":"75 Av","lat":40.718331,"lng":-73.837324},{"name":"Court Sq-23 St","lat":40.747846,"lng":-73.946},{"name":"Lexington Av/53 St","lat":40.757552,"lng":-73.969055},{"name":"5 Av/53 St","lat":40.760167,"lng":-73.975224},{"name":"2 Av","lat":40.723402,"lng":-73.989938},{"name":"Delancey St-Essex St","lat":40.718611,"lng":-73.988114},{"name":"East Broadway","lat":40.713715,"lng":-73.990173},{"name":"York St","lat":40.701397,"lng":-73.986751},{"name":"Bergen St","lat":40.686145,"lng":-73.990862},{"name":"Carroll St","lat":40.680303,"lng":-73.995048},{"name":"Smith-9 Sts","lat":40.67358,"lng":-73.995959},{"name":"4 Av-9 St","lat":40.670272,"lng":-73.989779},{"name":"7 Av","lat":40.666271,"lng":-73.980305},{"name":"15 St-Prospect Park","lat":40.660365,"lng":-73.979493},{"name":"Fort Hamilton Pkwy","lat":40.650782,"lng":-73.975776},{"name":"Church Av","lat":40.644041,"lng":-73.979678},{"name":"Ditmas Av","lat":40.636119,"lng":-73.978172},{"name":"18 Av","lat":40.629755,"lng":-73.976971},{"name":"Avenue I","lat":40.625322,"lng":-73.976127},{"name":"Bay Pkwy","lat":40.620769,"lng":-73.975264},{"name":"Avenue N","lat":40.61514,"lng":-73.974197},{"name":"Avenue P","lat":40.608944,"lng":-73.973022},{"name":"Kings Hwy","lat":40.603217,"lng":-73.972361},{"name":"Avenue U","lat":40.596063,"lng":-73.973357},{"name":"Avenue X","lat":40.58962,"lng":-73.97425},{"name":"Neptune Av","lat":40.581011,"lng":-73.974574},{"name":"Jamaica Center-Parsons/Archer","lat":40.702147,"lng":-73.801109},{"name":"Sutphin Blvd-Archer Av-JFK Airport","lat":40.700486,"lng":-73.807969},{"name":"Jamaica-Van Wyck","lat":40.702566,"lng":-73.816859},{"name":"Forest Hills-71 Av","lat":40.721691,"lng":-73.844521},{"name":"67 Av","lat":40.726523,"lng":-73.852719},{"name":"63 Dr-Rego Park","lat":40.729846,"lng":-73.861604},{"name":"Woodhaven Blvd","lat":40.733106,"lng":-73.869229},{"name":"Grand Av-Newtown","lat":40.737015,"lng":-73.877223},{"name":"Elmhurst Av","lat":40.742454,"lng":-73.882017},{"name":"Jackson Hts-Roosevelt Av","lat":40.746644,"lng":-73.891338},{"name":"65 St","lat":40.749669,"lng":-73.898453},{"name":"Northern Blvd","lat":40.752885,"lng":-73.906006},{"name":"46 St","lat":40.756312,"lng":-73.913333},{"name":"Steinway St","lat":40.756879,"lng":-73.92074},{"name":"36 St","lat":40.752039,"lng":-73.928781},{"name":"Queens Plaza","lat":40.748973,"lng":-73.937243},{"name":"Court Sq","lat":40.746554,"lng":-73.943832},{"name":"21 St","lat":40.744065,"lng":-73.949724},{"name":"Greenpoint Av","lat":40.731352,"lng":-73.954449},{"name":"Nassau Av","lat":40.724635,"lng":-73.951277},{"name":"Metropolitan Av","lat":40.712792,"lng":-73.951418},{"name":"Broadway","lat":40.706092,"lng":-73.950308},{"name":"Flushing Av","lat":40.700377,"lng":-73.950234},{"name":"Myrtle-Willoughby Avs","lat":40.694568,"lng":-73.949046},{"name":"Bedford-Nostrand Avs","lat":40.689627,"lng":-73.953522},{"name":"Classon Av","lat":40.688873,"lng":-73.96007},{"name":"Clinton-Washington Avs","lat":40.688089,"lng":-73.966839},{"name":"Fulton St","lat":40.687119,"lng":-73.975375},{"name":"Aqueduct Racetrack","lat":40.672097,"lng":-73.835919},{"name":"Aqueduct-N Conduit Av","lat":40.668234,"lng":-73.834058},{"name":"Howard Beach-JFK Airport","lat":40.660476,"lng":-73.830301},{"name":"Broad Channel","lat":40.608382,"lng":-73.815925},{"name":"Beach 67 St","lat":40.590927,"lng":-73.796924},{"name":"Beach 60 St","lat":40.592374,"lng":-73.788522},{"name":"Beach 44 St","lat":40.592943,"lng":-73.776013},{"name":"Beach 36 St","lat":40.595398,"lng":-73.768175},{"name":"Beach 25 St","lat":40.600066,"lng":-73.761353},{"name":"Far Rockaway-Mott Av","lat":40.603995,"lng":-73.755405},{"name":"Beach 90 St","lat":40.588034,"lng":-73.813641},{"name":"Beach 98 St","lat":40.585307,"lng":-73.820558},{"name":"Beach 105 St","lat":40.583209,"lng":-73.827559},{"name":"Rockaway Park-Beach 116 St","lat":40.580903,"lng":-73.835592},{"name":"121 St","lat":40.700492,"lng":-73.828294},{"name":"111 St","lat":40.697418,"lng":-73.836345},{"name":"104 St","lat":40.695178,"lng":-73.84433},{"name":"Woodhaven Blvd","lat":40.693879,"lng":-73.851576},{"name":"85 St-Forest Pkwy","lat":40.692435,"lng":-73.86001},{"name":"75 St-Elderts Ln","lat":40.691324,"lng":-73.867139},{"name":"Cypress Hills","lat":40.689941,"lng":-73.87255},{"name":"Crescent St","lat":40.683194,"lng":-73.873785},{"name":"Norwood Av","lat":40.68141,"lng":-73.880039},{"name":"Cleveland St","lat":40.679947,"lng":-73.884639},{"name":"Van Siclen Av","lat":40.678024,"lng":-73.891688},{"name":"Alabama Av","lat":40.676992,"lng":-73.898654},{"name":"Broadway Junction","lat":40.679498,"lng":-73.904512},{"name":"Chauncey St","lat":40.682893,"lng":-73.910456},{"name":"Halsey St","lat":40.68637,"lng":-73.916559},{"name":"Gates Av","lat":40.68963,"lng":-73.92227},{"name":"Kosciuszko St","lat":40.693342,"lng":-73.928814},{"name":"8 Av","lat":40.739777,"lng":-74.002578},{"name":"6 Av","lat":40.737335,"lng":-73.996786},{"name":"14 St-Union Sq","lat":40.734789,"lng":-73.99073},{"name":"3 Av","lat":40.732849,"lng":-73.986122},{"name":"1 Av","lat":40.730953,"lng":-73.981628},{"name":"Bedford Av","lat":40.717304,"lng":-73.956872},{"name":"Lorimer St","lat":40.714063,"lng":-73.950275},{"name":"Graham Av","lat":40.714565,"lng":-73.944053},{"name":"Grand St","lat":40.711926,"lng":-73.94067},{"name":"Montrose Av","lat":40.707739,"lng":-73.93985},{"name":"Morgan Av","lat":40.706152,"lng":-73.933147},{"name":"Jefferson St","lat":40.706607,"lng":-73.922913},{"name":"DeKalb Av","lat":40.703811,"lng":-73.918425},{"name":"Myrtle-Wyckoff Avs","lat":40.699814,"lng":-73.911586},{"name":"Halsey St","lat":40.695602,"lng":-73.904084},{"name":"Wilson Av","lat":40.688764,"lng":-73.904046},{"name":"Bushwick Av-Aberdeen St","lat":40.682829,"lng":-73.905249},{"name":"Broadway Junction","lat":40.678856,"lng":-73.90324},{"name":"Atlantic Av","lat":40.675345,"lng":-73.903097},{"name":"Sutter Av","lat":40.669367,"lng":-73.901975},{"name":"Livonia Av","lat":40.664038,"lng":-73.900571},{"name":"New Lots Av","lat":40.658733,"lng":-73.899232},{"name":"East 105 St","lat":40.650573,"lng":-73.899485},{"name":"Canarsie-Rockaway Pkwy","lat":40.646654,"lng":-73.90185},{"name":"Middle Village-Metropolitan Av","lat":40.711396,"lng":-73.889601},{"name":"Fresh Pond Rd","lat":40.706186,"lng":-73.895877},{"name":"Forest Av","lat":40.704423,"lng":-73.903077},{"name":"Seneca Av","lat":40.702762,"lng":-73.90774},{"name":"Myrtle-Wyckoff Avs","lat":40.69943,"lng":-73.912385},{"name":"Knickerbocker Av","lat":40.698664,"lng":-73.919711},{"name":"Central Av","lat":40.697857,"lng":-73.927397},{"name":"Myrtle Av","lat":40.697207,"lng":-73.935657},{"name":"Flushing Av","lat":40.70026,"lng":-73.941126},{"name":"Lorimer St","lat":40.703869,"lng":-73.947408},{"name":"Hewes St","lat":40.70687,"lng":-73.953431},{"name":"Marcy Av","lat":40.708359,"lng":-73.957757},{"name":"Delancey St-Essex St","lat":40.718315,"lng":-73.987437},{"name":"Bowery","lat":40.72028,"lng":-73.993915},{"name":"Canal St","lat":40.718092,"lng":-73.999892},{"name":"Chambers St","lat":40.713243,"lng":-74.003401},{"name":"Fulton St","lat":40.710374,"lng":-74.007582},{"name":"Broad St","lat":40.706476,"lng":-74.011056},{"name":"8 Av","lat":40.635064,"lng":-74.011719},{"name":"Fort Hamilton Pkwy","lat":40.631386,"lng":-74.005351},{"name":"New Utrecht Av","lat":40.624842,"lng":-73.996353},{"name":"18 Av","lat":40.620671,"lng":-73.990414},{"name":"20 Av","lat":40.61741,"lng":-73.985026},{"name":"Bay Pkwy","lat":40.611815,"lng":-73.981848},{"name":"Kings Hwy","lat":40.603923,"lng":-73.980353},{"name":"Avenue U","lat":40.597473,"lng":-73.979137},{"name":"86 St","lat":40.592721,"lng":-73.97823},{"name":"Canal St","lat":40.718383,"lng":-74.00046},{"name":"72 St","lat":40.768799,"lng":-73.958424},{"name":"86 St","lat":40.777891,"lng":-73.951787},{"name":"96 St","lat":40.784318,"lng":-73.947152},{"name":"Astoria-Ditmars Blvd","lat":40.775036,"lng":-73.912034},{"name":"Astoria Blvd","lat":40.770258,"lng":-73.917843},{"name":"30 Av","lat":40.766779,"lng":-73.921479},{"name":"Broadway","lat":40.76182,"lng":-73.925508},{"name":"36 Av","lat":40.756804,"lng":-73.929575},{"name":"39 Av-Dutch Kills","lat":40.752882,"lng":-73.932755},{"name":"Queensboro Plaza","lat":40.750582,"lng":-73.940202},{"name":"Lexington Av/59 St","lat":40.76266,"lng":-73.967258},{"name":"5 Av/59 St","lat":40.764811,"lng":-73.973347},{"name":"57 St-7 Av","lat":40.764664,"lng":-73.980658},{"name":"49 St","lat":40.759901,"lng":-73.984139},{"name":"Times Sq-42 St","lat":40.754672,"lng":-73.986754},{"name":"34 St-Herald Sq","lat":40.749567,"lng":-73.98795},{"name":"28 St","lat":40.745494,"lng":-73.988691},{"name":"23 St","lat":40.741303,"lng":-73.989344},{"name":"14 St-Union Sq","lat":40.735736,"lng":-73.990568},{"name":"8 St-NYU","lat":40.730328,"lng":-73.992629},{"name":"Prince St","lat":40.724329,"lng":-73.997702},{"name":"Canal St","lat":40.719527,"lng":-74.001775},{"name":"City Hall","lat":40.713282,"lng":-74.006978},{"name":"Cortlandt St","lat":40.710668,"lng":-74.011029},{"name":"Rector St","lat":40.70722,"lng":-74.013342},{"name":"Whitehall St-South Ferry","lat":40.703087,"lng":-74.012994},{"name":"Court St","lat":40.6941,"lng":-73.991777},{"name":"Jay St-MetroTech","lat":40.69218,"lng":-73.985942},{"name":"DeKalb Av","lat":40.690635,"lng":-73.981824},{"name":"Atlantic Av-Barclays Ctr","lat":40.683666,"lng":-73.97881},{"name":"Union St","lat":40.677316,"lng":-73.98311},{"name":"4 Av-9 St","lat":40.670847,"lng":-73.988302},{"name":"Prospect Av","lat":40.665414,"lng":-73.992872},{"name":"25 St","lat":40.660397,"lng":-73.998091},{"name":"36 St","lat":40.655144,"lng":-74.003549},{"name":"45 St","lat":40.648939,"lng":-74.010006},{"name":"53 St","lat":40.645069,"lng":-74.014034},{"name":"59 St","lat":40.641362,"lng":-74.017881},{"name":"Bay Ridge Av","lat":40.634967,"lng":-74.023377},{"name":"77 St","lat":40.629742,"lng":-74.02551},{"name":"86 St","lat":40.622687,"lng":-74.028398},{"name":"Bay Ridge-95 St","lat":40.616622,"lng":-74.030876},{"name":"Franklin Av","lat":40.680596,"lng":-73.955827},{"name":"Park Pl","lat":40.674772,"lng":-73.957624},{"name":"Botanic Garden","lat":40.670343,"lng":-73.959245},{"name":"Tottenville","lat":40.512764,"lng":-74.251961},{"name":"Arthur Kill","lat":40.516578,"lng":-74.242096},{"name":"Richmond Valley","lat":40.519631,"lng":-74.229141},{"name":"Pleasant Plains","lat":40.52241,"lng":-74.217847},{"name":"Prince's Bay","lat":40.525507,"lng":-74.200064},{"name":"Huguenot","lat":40.533674,"lng":-74.191794},{"name":"Annadale","lat":40.54046,"lng":-74.178217},{"name":"Eltingville","lat":40.544601,"lng":-74.16457},{"name":"Great Kills","lat":40.551231,"lng":-74.151399},{"name":"Bay Terrace","lat":40.5564,"lng":-74.136907},{"name":"Oakwood Heights","lat":40.56511,"lng":-74.12632},{"name":"New Dorp","lat":40.57348,"lng":-74.11721},{"name":"Grant City","lat":40.578965,"lng":-74.109704},{"name":"Jefferson Av","lat":40.583591,"lng":-74.103338},{"name":"Dongan Hills","lat":40.588849,"lng":-74.09609},{"name":"Old Town","lat":40.596612,"lng":-74.087368},{"name":"Grasmere","lat":40.603117,"lng":-74.084087},{"name":"Clifton","lat":40.621319,"lng":-74.071402},{"name":"Stapleton","lat":40.627915,"lng":-74.075162},{"name":"Tompkinsville","lat":40.636949,"lng":-74.074835},{"name":"St George","lat":40.643748,"lng":-74.073643}],"routes":[{"ref":"1","segs":[[0,1,90],[1,2,90],[2,3,90],[3,4,90],[4,5,60],[5,6,90],[6,7,90],[7,8,90],[8,9,120],[9,10,90],[10,11,120],[11,12,90],[12,13,90],[13,14,150],[14,15,60],[15,16,60],[16,17,120],[17,18,120],[18,19,60],[19,20,90],[20,21,90],[21,22,90],[22,23,120],[23,24,90],[24,25,120],[25,26,60],[26,27,60],[27,28,90],[28,29,60],[29,30,90],[30,31,90],[31,32,90],[32,33,60],[33,34,60],[34,35,60],[35,36,90],[36,37,120],[37,36,90],[36,35,90],[35,34,60],[34,33,60],[33,32,60],[32,31,90],[31,30,90],[30,29,90],[29,28,60],[28,27,90],[27,26,60],[26,25,60],[25,24,120],[24,23,120],[23,22,120],[22,21,90],[21,20,60],[20,19,120],[19,18,60],[18,17,120],[17,16,90],[16,15,60],[15,14,60],[14,13,150],[13,12,90],[12,11,90],[11,10,120],[10,9,90],[9,8,120],[8,7,90],[7,6,60],[6,5,90],[5,4,90],[4,3,90],[3,2,90],[2,1,90],[1,0,90]],"headway":{"rush":248,"midday":323,"evening":395,"night":854}},{"ref":"2","segs":[[38,39,120],[39,40,90],[40,41,90],[41,42,60],[42,43,90],[43,44,120],[44,45,90],[45,46,120],[46,47,120],[47,48,120],[48,49,90],[49,50,120],[50,51,150],[51,52,90],[52,53,60],[53,54,90],[54,55,90],[55,56,150],[56,57,120],[57,58,210],[58,59,120],[59,60,90],[60,61,60],[61,17,270],[17,18,120],[18,19,60],[19,20,90],[20,21,90],[21,22,90],[22,23,120],[23,24,90],[24,25,60],[25,26,60],[26,27,60],[27,28,60],[28,29,60],[29,30,90],[30,31,90],[31,32,120],[32,33,60],[33,34,60],[34,62,90],[62,63,120],[63,64,90],[64,65,270],[65,66,60],[66,67,90],[67,68,60],[68,69,90],[69,70,90],[70,71,120],[71,72,90],[72,73,120],[73,74,180],[74,75,90],[75,76,90],[76,77,90],[77,78,90],[78,79,90],[79,80,150],[80,79,120],[79,78,90],[78,77,90],[77,76,90],[76,75,120],[75,74,90],[74,73,150],[73,72,120],[72,71,90],[71,70,120],[70,69,90],[69,68,90],[68,67,90],[67,66,90],[66,65,120],[65,64,210],[64,63,60],[63,62,150],[62,34,60],[34,33,90],[33,32,60],[32,31,90],[31,30,90],[30,29,90],[29,28,60],[28,27,60],[27,26,60],[26,25,90],[25,24,60],[24,23,90],[23,22,120],[22,21,90],[21,20,60],[20,19,90],[19,18,90],[18,17,90],[17,61,300],[61,60,60],[60,59,90],[59,58,120],[58,57,210],[57,56,120],[56,55,150],[55,54,90],[54,53,90],[53,52,60],[52,51,90],[51,50,150],[50,49,120],[49,48,90],[48,47,120],[47,46,120],[46,45,120],[45,44,90],[44,43,120],[43,42,90],[42,41,60],[41,40,90],[40,39,90],[39,38,120],[17,20,180],[20,24,240],[25,29,180],[29,34,270],[34,29,270],[29,25,150],[24,20,270],[20,17,180],[90,89,90],[89,88,60],[88,87,120],[87,86,60],[86,85,120],[85,84,90],[84,83,180],[83,82,150],[82,81,120],[81,73,90],[73,81,90],[81,82,120],[82,83,120],[83,84,180],[84,85,90],[85,86,120],[86,87,60],[87,88,120],[88,89,60],[89,90,90]],"headway":{"rush":404,"midday":454,"evening":613,"night":854}},{"ref":"3","segs":[[91,92,90],[92,58,120],[58,59,120],[59,60,90],[60,61,60],[61,17,270],[17,20,180],[20,24,240],[24,25,60],[25,24,60],[24,20,270],[20,17,180],[17,61,300],[61,60,60],[60,59,90],[59,58,120],[58,92,150],[92,91,60],[25,29,180],[29,34,270],[34,62,90],[62,63,120],[63,64,90],[64,65,270],[65,66,60],[66,67,90],[67,68,60],[68,69,90],[69,70,90],[70,71,120],[71,72,90],[72,73,120],[73,81,90],[81,82,120],[82,83,120],[83,84,180],[84,85,90],[85,86,90],[86,87,90],[87,88,120],[88,89,60],[89,90,90],[90,89,90],[89,88,60],[88,87,90],[87,86,60],[86,85,120],[85,84,90],[84,83,150],[83,82,150],[82,81,120],[81,73,90],[73,72,120],[72,71,90],[71,70,120],[70,69,90],[69,68,90],[68,67,90],[67,66,90],[66,65,120],[65,64,210],[64,63,60],[63,62,150],[62,34,60],[34,29,270],[29,25,150]],"headway":{"rush":419,"midday":467,"evening":800,"night":916}},{"ref":"4","segs":[[93,94,120],[94,95,120],[95,96,120],[96,97,90],[97,98,60],[98,99,90],[99,100,90],[100,101,90],[101,102,90],[102,103,90],[103,104,120],[104,105,180],[105,106,120],[106,134,150],[134,139,270],[139,142,210],[142,144,150],[144,148,240],[148,153,300],[153,107,120],[107,108,90],[108,109,90],[109,110,300],[110,68,120],[68,69,90],[69,70,60],[70,71,120],[71,72,120],[72,73,90],[73,81,90],[81,82,90],[82,83,120],[83,84,150],[84,85,120],[85,86,90],[86,87,90],[87,88,90],[88,89,60],[89,90,90],[134,135,90],[135,136,90],[136,137,60],[137,138,90],[138,139,120],[139,140,90],[140,141,120],[141,142,90],[142,143,90],[143,144,120],[144,145,120],[145,146,60],[146,147,60],[147,148,90],[148,149,90],[149,150,90],[150,151,60],[151,152,90],[152,153,150],[90,89,90],[89,88,60],[88,87,90],[87,86,60],[86,85,120],[85,84,90],[84,83,150],[83,82,120],[82,81,120],[81,73,90],[73,72,120],[72,71,120],[71,70,120],[70,69,90],[69,68,90],[68,110,90],[110,109,300],[109,108,90],[108,107,60],[107,153,120],[153,152,120],[152,151,90],[151,150,60],[150,149,90],[149,148,90],[148,147,120],[147,146,60],[146,145,60],[145,144,120],[144,143,90],[143,142,90],[142,141,120],[141,140,90],[140,139,90],[139,138,120],[138,137,90],[137,136,60],[136,135,90],[135,134,90],[134,106,180],[106,105,90],[105,104,180],[104,103,120],[103,102,90],[102,101,60],[101,100,90],[100,99,90],[99,98,90],[98,97,90],[97,96,90],[96,95,120],[95,94,120],[94,93,120],[153,148,270],[148,144,210],[144,142,150],[142,139,210],[139,134,300],[69,73,240],[73,83,270],[73,69,300],[83,73,210],[105,134,270],[134,105,270]],"headway":{"rush":343,"midday":406,"evening":554,"night":764}},{"ref":"5","segs":[[111,112,120],[112,113,150],[113,114,150],[114,115,60],[115,48,210],[48,115,210],[115,114,60],[114,113,150],[113,112,150],[112,111,120],[48,49,90],[49,50,120],[50,51,150],[51,52,90],[52,53,90],[53,54,90],[54,55,90],[55,56,150],[56,57,120],[57,106,180],[106,134,150],[134,139,270],[139,142,210],[142,144,150],[144,148,240],[148,153,300],[153,107,120],[107,108,90],[108,109,90],[109,110,300],[110,68,120],[68,69,90],[69,73,240],[73,74,180],[74,75,90],[75,76,90],[76,77,90],[77,78,90],[78,79,90],[79,80,150],[90,89,90],[89,88,90],[88,87,90],[87,86,90],[86,85,90],[85,84,120],[84,83,180],[83,82,120],[82,81,120],[81,73,90],[73,69,300],[69,68,90],[68,110,90],[110,109,300],[109,108,90],[108,107,60],[107,153,120],[153,148,270],[148,144,210],[144,142,150],[142,139,210],[139,134,300],[134,106,180],[106,57,180],[57,56,120],[56,55,150],[55,54,90],[54,53,90],[53,52,90],[52,51,90],[51,50,150],[50,49,120],[49,48,90],[48,56,660],[80,79,120],[79,78,90],[78,77,90],[77,76,90],[76,75,120],[75,74,90],[74,73,150],[39,40,90],[40,41,90],[41,42,60],[42,43,120],[43,44,90],[44,45,90],[45,46,120],[46,47,150],[47,48,120],[73,83,270],[83,73,240],[56,48,660],[48,43,330],[48,47,120],[47,46,150],[46,45,120],[45,44,90],[44,43,120],[43,42,90],[42,41,90],[41,40,90],[40,39,90]],"headway":{"rush":400,"midday":420,"evening":847,"night":764}},{"ref":"6","segs":[[116,117,150],[117,118,60],[118,119,120],[119,120,60],[120,121,90],[121,122,120],[122,123,90],[123,124,90],[124,125,60],[125,126,90],[126,127,120],[127,128,120],[128,129,90],[129,130,90],[130,131,120],[131,132,60],[132,133,90],[133,134,180],[134,135,120],[135,136,60],[136,137,90],[137,138,90],[138,139,120],[139,140,120],[140,141,120],[141,142,90],[142,143,90],[143,144,120],[144,145,120],[145,146,60],[146,147,60],[147,148,90],[148,149,90],[149,150,90],[150,151,60],[151,152,90],[152,153,120],[153,152,120],[152,151,90],[151,150,60],[150,149,90],[149,148,90],[148,147,120],[147,146,60],[146,145,60],[145,144,120],[144,143,120],[143,142,90],[142,141,90],[141,140,120],[140,139,90],[139,138,120],[138,137,90],[137,136,60],[136,135,90],[135,134,90],[134,133,180],[133,132,90],[132,131,60],[131,130,120],[130,129,90],[129,128,90],[128,127,120],[127,126,90],[126,125,120],[125,124,60],[124,123,60],[123,122,90],[122,121,120],[121,120,60],[120,119,60],[119,118,90],[118,117,90],[117,116,150],[127,122,360]],"headway":{"rush":302,"midday":304,"evening":430,"night":800}},{"ref":"6X","segs":[[116,117,150],[117,118,60],[118,119,120],[119,120,90],[120,121,60],[121,122,150],[122,127,330],[127,133,390],[133,134,240],[134,135,120],[135,136,60],[136,137,90],[137,138,90],[138,139,120],[139,140,120],[140,141,90],[141,142,120],[142,143,90],[143,144,120],[144,145,120],[145,146,60],[146,147,90],[147,148,90],[148,149,90],[149,150,120],[150,151,60],[151,152,90],[152,153,120],[153,152,120],[152,151,90],[151,150,90],[150,149,90],[149,148,90],[148,147,120],[147,146,60],[146,145,60],[145,144,120],[144,143,120],[143,142,90],[142,141,120],[141,140,90],[140,139,120],[139,138,120],[138,137,90],[137,136,90],[136,135,60],[135,134,120],[134,133,180],[133,127,420],[127,122,300],[122,121,120],[121,120,90],[120,119,60],[119,118,120],[118,117,90],[117,116,150]],"headway":{"rush":831,"midday":969,"evening":1800,"night":1800}},{"ref":"7","segs":[[154,155,150],[155,156,90],[156,157,90],[157,158,90],[158,159,90],[159,160,90],[160,161,90],[161,162,60],[162,163,90],[163,164,120],[164,165,60],[165,166,60],[166,167,90],[167,168,150],[168,169,90],[169,170,120],[170,171,60],[171,172,300],[172,173,90],[173,174,90],[174,175,180],[175,174,150],[174,173,90],[173,172,90],[172,171,270],[171,170,60],[170,169,120],[169,168,90],[168,167,150],[167,166,60],[166,165,90],[165,163,150],[163,161,120],[161,160,90],[160,159,90],[159,158,60],[158,157,90],[157,156,90],[156,155,150],[155,154,210]],"headway":{"rush":222,"midday":291,"evening":335,"night":622}},{"ref":"7X","segs":[[154,155,180],[155,158,210],[158,161,180],[161,162,60],[162,163,90],[163,164,120],[164,165,60],[165,166,60],[166,167,90],[167,168,150],[168,169,90],[169,170,120],[170,171,60],[171,172,300],[172,173,90],[173,174,90],[174,175,210],[175,174,150],[174,173,90],[173,172,90],[172,171,300],[171,170,60],[170,169,120],[169,168,90],[168,167,150],[167,166,60],[166,165,90],[165,163,150],[163,158,210],[158,155,210],[155,154,210]],"headway":{"rush":665,"midday":1800,"evening":1800,"night":1800}},{"ref":"A","segs":[[178,179,120],[179,180,150],[180,181,120],[181,182,60],[182,183,120],[183,184,90],[184,185,90],[185,186,90],[186,187,120],[187,188,120],[188,189,90],[189,190,90],[190,191,90],[191,192,60],[192,193,120],[193,194,90],[194,195,90],[195,196,120],[196,197,90],[197,198,120],[198,199,60],[199,200,120],[200,201,90],[201,202,120],[202,203,120],[203,204,90],[204,205,120],[205,206,90],[206,207,180],[207,208,150],[208,209,90],[209,210,120],[210,211,90],[211,212,120],[212,213,60],[213,214,90],[214,215,120],[215,216,120],[216,217,90],[217,218,90],[218,219,120],[219,220,90],[220,221,90],[221,222,90],[222,223,120],[223,224,90],[224,225,120],[225,226,90],[226,348,210],[348,349,90],[349,350,420],[350,351,270],[351,352,90],[352,353,120],[353,354,90],[354,355,120],[355,356,90],[229,228,90],[228,227,90],[227,226,90],[226,225,90],[225,224,90],[224,223,90],[223,222,90],[226,227,90],[227,228,120],[228,229,90],[356,355,90],[355,354,120],[354,353,90],[353,352,120],[352,351,90],[351,350,270],[350,349,420],[349,348,120],[348,347,60],[347,226,210],[222,221,90],[221,220,120],[220,219,90],[219,218,120],[218,217,90],[217,216,90],[216,215,120],[215,214,120],[214,213,90],[213,212,60],[212,211,120],[211,210,90],[210,209,120],[209,208,120],[208,207,120],[207,206,180],[206,205,90],[205,204,120],[204,203,120],[203,202,120],[202,201,150],[201,200,90],[200,199,90],[199,198,90],[198,197,90],[197,196,150],[196,195,120],[195,194,90],[194,193,90],[193,192,120],[192,191,60],[191,190,90],[190,189,90],[189,188,90],[188,187,120],[187,186,120],[186,185,90],[185,184,90],[184,183,90],[183,182,120],[182,181,60],[181,180,120],[180,179,150],[179,178,120],[183,186,210],[186,188,210],[188,196,480],[196,198,150],[199,201,180],[202,204,150],[222,218,270],[218,215,210],[215,213,150],[213,209,300],[204,202,150],[201,199,210],[198,196,210],[196,188,450],[188,186,180],[186,183,210],[209,213,270],[213,215,150],[215,218,210],[218,222,300],[360,359,150],[359,358,90],[358,357,120],[357,350,210],[350,357,240],[357,358,90],[358,359,60],[359,360,120]],"headway":{"rush":360,"midday":427,"evening":600,"night":542}},{"ref":"B","segs":[[247,248,120],[248,249,120],[249,250,90],[250,251,90],[251,252,90],[252,253,90],[253,254,120],[254,255,120],[255,256,120],[256,257,150],[257,187,120],[187,188,120],[188,189,120],[189,190,60],[190,191,90],[191,192,90],[192,193,120],[193,194,60],[194,195,120],[195,196,120],[196,258,120],[258,259,90],[259,260,90],[260,261,90],[261,264,180],[264,265,150],[265,266,120],[266,458,480],[458,267,120],[267,268,180],[268,269,180],[269,271,120],[271,274,150],[274,278,270],[278,281,270],[281,282,120],[282,281,120],[281,278,240],[278,274,270],[274,271,180],[271,269,120],[269,268,180],[268,267,120],[267,458,180],[458,266,480],[266,265,120],[265,264,150],[264,261,210],[261,260,90],[260,259,90],[259,258,90],[258,196,150],[196,195,120],[195,194,120],[194,193,60],[193,192,120],[192,191,90],[191,190,90],[190,189,60],[189,188,120],[188,187,120],[187,257,120],[257,256,120],[256,255,120],[255,254,120],[254,253,120],[253,252,90],[252,251,90],[251,250,120],[250,249,90],[249,248,120],[248,247,120],[251,249,210]],"headway":{"rush":540,"midday":475,"evening":1800,"night":1800}},{"ref":"C","segs":[[183,184,90],[184,185,90],[185,186,90],[186,187,120],[187,188,120],[188,189,120],[189,190,60],[190,191,90],[191,192,90],[192,193,120],[193,194,60],[194,195,120],[195,196,120],[196,197,90],[197,198,120],[198,199,90],[199,200,90],[200,201,90],[201,202,150],[202,203,120],[203,204,90],[204,205,150],[205,206,90],[206,207,180],[207,208,150],[208,209,90],[209,210,120],[210,211,120],[211,212,120],[212,213,60],[213,214,90],[214,215,120],[215,216,120],[216,217,90],[217,218,90],[218,219,120],[219,220,90],[220,221,90],[221,222,90],[222,221,90],[221,220,120],[220,219,90],[219,218,120],[218,217,90],[217,216,90],[216,215,120],[215,214,120],[214,213,90],[213,212,60],[212,211,120],[211,210,90],[210,209,120],[209,208,120],[208,207,120],[207,206,180],[206,205,90],[205,204,120],[204,203,120],[203,202,150],[202,201,150],[201,200,90],[200,199,90],[199,198,90],[198,197,90],[197,196,150],[196,195,120],[195,194,90],[194,193,90],[193,192,120],[192,191,60],[191,190,90],[190,189,90],[189,188,90],[188,187,120],[187,186,120],[186,185,90],[185,184,90],[184,183,90]],"headway":{"rush":584,"midday":504,"evening":993,"night":1800}},{"ref":"D","segs":[[246,247,120],[247,248,120],[248,249,120],[249,250,90],[250,251,90],[251,252,90],[252,253,90],[253,254,120],[254,255,120],[255,256,120],[256,257,120],[257,188,210],[188,196,480],[196,258,120],[258,259,90],[259,260,90],[260,261,90],[261,264,180],[264,265,150],[265,266,120],[266,458,480],[458,459,180],[459,460,120],[460,461,90],[461,462,120],[462,463,90],[463,464,90],[464,234,240],[234,235,120],[235,236,60],[236,237,90],[237,238,90],[238,239,120],[239,240,90],[240,241,90],[241,242,90],[242,243,60],[243,244,90],[244,245,150],[245,285,300],[285,245,240],[245,244,150],[244,243,90],[243,242,60],[242,241,90],[241,240,90],[240,239,90],[239,238,120],[238,237,90],[237,236,90],[236,235,90],[235,234,120],[234,464,300],[464,463,90],[463,462,90],[462,461,120],[461,460,90],[460,459,120],[459,458,180],[458,266,480],[266,265,120],[265,264,150],[264,261,210],[261,260,90],[260,259,90],[259,258,90],[258,196,150],[196,188,450],[188,257,210],[257,256,120],[256,255,120],[255,254,120],[254,253,120],[253,252,90],[252,251,90],[251,250,120],[250,249,90],[249,248,120],[248,247,120],[247,246,150],[464,459,330],[459,266,630],[249,251,150],[251,257,480],[266,459,630],[459,464,360],[257,251,450],[251,249,180]],"headway":{"rush":465,"midday":467,"evening":686,"night":951}},{"ref":"E","segs":[[319,320,90],[320,321,150],[321,291,90],[291,292,120],[292,293,120],[293,322,120],[322,323,120],[323,324,90],[324,325,90],[325,326,90],[326,327,90],[327,328,120],[328,329,90],[329,330,90],[330,331,90],[331,332,90],[332,333,120],[333,334,120],[334,294,90],[294,295,180],[295,296,90],[296,258,120],[258,197,90],[197,198,120],[198,199,60],[199,200,120],[200,201,90],[201,202,120],[202,203,90],[203,204,90],[204,286,150],[286,204,120],[204,203,90],[203,202,120],[202,201,150],[201,200,90],[200,199,120],[199,198,90],[198,197,90],[197,258,90],[258,296,90],[296,295,90],[295,294,180],[294,334,120],[334,333,120],[333,332,120],[332,331,90],[331,330,90],[330,329,90],[329,328,90],[328,327,120],[327,326,90],[326,325,90],[325,324,90],[324,323,90],[323,322,120],[322,293,120],[293,292,90],[292,291,120],[291,321,90],[321,320,150],[320,319,90],[322,328,330],[328,334,330],[334,328,360],[328,322,360],[321,292,180],[292,322,180],[322,292,150],[292,321,210],[287,289,180],[289,292,240],[292,289,240],[289,287,180],[291,290,120],[290,289,90],[289,288,120],[288,287,120]],"headway":{"rush":288,"midday":348,"evening":505,"night":869}},{"ref":"F","segs":[[287,288,120],[288,289,90],[289,290,90],[290,291,150],[291,292,120],[292,293,120],[293,322,120],[322,323,120],[323,324,90],[324,325,90],[325,326,90],[326,327,90],[327,328,120],[328,329,90],[329,330,90],[330,331,90],[331,332,90],[332,333,120],[333,230,150],[230,231,120],[231,232,150],[232,233,150],[233,259,120],[259,260,90],[260,261,90],[261,262,120],[262,263,90],[263,264,120],[264,265,150],[265,297,90],[297,298,90],[298,299,90],[299,300,150],[300,208,120],[208,301,180],[301,302,90],[302,303,120],[303,304,120],[304,305,120],[305,306,90],[306,307,150],[307,308,120],[308,309,120],[309,310,120],[310,311,60],[311,312,90],[312,313,90],[313,314,90],[314,315,90],[315,316,120],[316,317,120],[317,318,150],[318,284,120],[284,285,90],[285,284,90],[284,318,90],[318,317,150],[317,316,120],[316,315,120],[315,314,90],[314,313,90],[313,312,90],[312,311,90],[311,310,60],[310,309,120],[309,308,120],[308,307,120],[307,306,150],[306,305,90],[305,304,120],[304,303,90],[303,302,120],[302,301,120],[301,208,150],[208,300,120],[300,299,150],[299,298,90],[298,297,90],[297,265,90],[265,264,180],[264,263,90],[263,262,90],[262,261,120],[261,260,90],[260,259,90],[259,233,120],[233,232,150],[232,231,120],[231,230,120],[230,333,150],[333,332,120],[332,331,90],[331,330,90],[330,329,90],[329,328,90],[328,327,120],[327,326,90],[326,325,90],[325,324,90],[324,323,90],[323,322,120],[322,293,120],[293,292,120],[292,291,120],[291,290,120],[290,289,90],[289,288,120],[288,287,120],[322,328,330],[328,334,330],[334,294,90],[294,295,180],[295,296,90],[296,259,150],[259,296,150],[296,295,90],[295,294,180],[294,334,120],[334,328,360],[328,322,360],[328,333,240],[333,334,60],[328,230,360]],"headway":{"rush":311,"midday":376,"evening":543,"night":813}},{"ref":"FS","segs":[[472,473,120],[473,474,90],[474,269,180],[269,474,180],[474,473,120],[473,472,120]],"headway":{"rush":600,"midday":600,"evening":800,"night":1096}},{"ref":"FX","segs":[[285,284,90],[284,318,90],[318,317,150],[317,316,90],[316,315,120],[315,314,90],[314,313,90],[313,312,90],[312,311,90],[311,310,60],[310,309,120],[309,308,120],[308,305,240],[305,208,330],[208,300,120],[300,299,150],[299,298,90],[298,297,120],[297,265,90],[265,264,180],[264,263,120],[263,262,90],[262,261,120],[261,260,90],[260,259,90],[259,296,150],[296,295,90],[295,294,180],[294,334,120],[334,328,360],[328,322,330],[322,293,120],[293,292,120],[292,291,120],[291,290,120],[290,289,90],[289,288,120],[288,287,120],[287,288,120],[288,289,90],[289,290,90],[290,291,150],[291,292,120],[292,293,120],[293,322,120],[322,328,330],[328,334,330],[334,294,90],[294,295,180],[295,296,120],[296,259,150],[259,260,90],[260,261,90],[261,262,120],[262,263,90],[263,264,120],[264,265,150],[265,297,90],[297,298,90],[298,299,90],[299,300,150],[300,208,120],[208,305,420],[305,308,240],[308,309,120],[309,310,120],[310,311,60],[311,312,90],[312,313,90],[313,314,90],[314,315,90],[315,316,120],[316,317,120],[317,318,150],[318,284,120],[284,285,90]],"headway":{"rush":1800,"midday":1800,"evening":1800,"night":1800}},{"ref":"G","segs":[[335,336,60],[336,337,150],[337,338,90],[338,339,180],[339,340,90],[340,341,60],[341,342,90],[342,343,90],[343,344,60],[344,345,90],[345,346,90],[346,209,90],[209,301,90],[301,302,90],[302,303,120],[303,304,120],[304,305,120],[305,306,90],[306,307,150],[307,308,120],[308,307,120],[307,306,150],[306,305,90],[305,304,120],[304,303,90],[303,302,120],[302,301,120],[301,209,90],[209,346,90],[346,345,90],[345,344,90],[344,343,60],[343,342,90],[342,341,90],[341,340,90],[340,339,60],[339,338,180],[338,337,90],[337,336,150],[336,335,60]],"headway":{"rush":470,"midday":475,"evening":613,"night":951}},{"ref":"GS","segs":[[176,177,90],[177,176,90]],"headway":{"rush":220,"midday":272,"evening":291,"night":1800}},{"ref":"H","segs":[[350,357,240],[357,358,90],[358,359,60],[359,360,90],[360,359,120],[359,358,120],[358,357,90],[357,350,210]],"headway":{"rush":960,"midday":900,"evening":1067,"night":1260}},{"ref":"J","segs":[[319,320,60],[320,361,240],[361,362,90],[362,363,120],[363,364,90],[364,365,120],[365,366,90],[366,367,60],[367,368,120],[368,369,120],[369,370,60],[370,371,90],[371,372,90],[372,373,120],[373,374,90],[374,375,90],[375,376,90],[376,377,90],[377,409,90],[409,410,90],[410,411,90],[411,412,60],[412,413,60],[413,414,450],[414,415,90],[415,416,90],[416,417,90],[417,418,60],[418,419,90],[419,418,90],[418,417,90],[417,416,120],[416,415,120],[415,414,120],[414,413,450],[413,412,60],[412,411,90],[411,410,90],[410,409,60],[409,377,90],[377,376,90],[376,375,90],[375,374,90],[374,373,90],[373,372,120],[372,371,90],[371,370,90],[370,369,60],[369,368,120],[368,367,120],[367,366,60],[366,365,90],[365,364,120],[364,363,90],[363,362,120],[362,361,90],[361,320,240],[320,319,60],[409,413,240],[320,362,300],[362,364,180],[365,367,150],[368,370,150],[370,372,150],[373,375,150],[375,377,150],[413,409,240],[377,375,150],[375,373,150],[372,370,150],[370,368,150],[367,365,150],[364,362,180],[362,320,300]],"headway":{"rush":508,"midday":467,"evening":702,"night":988}},{"ref":"L","segs":[[401,400,90],[400,399,120],[399,398,90],[398,397,90],[397,396,90],[396,395,90],[395,394,60],[394,393,90],[393,392,120],[392,391,90],[391,390,90],[390,389,90],[389,388,120],[388,387,90],[387,386,60],[386,385,90],[385,384,60],[384,383,90],[383,382,210],[382,381,60],[381,380,60],[380,379,90],[379,378,60],[378,379,90],[379,380,90],[380,381,60],[381,382,60],[382,383,210],[383,384,90],[384,385,60],[385,386,90],[386,387,60],[387,388,90],[388,389,120],[389,390,90],[390,391,90],[391,392,90],[392,393,150],[393,394,90],[394,395,60],[395,396,60],[396,397,90],[397,398,60],[398,399,90],[399,400,120],[400,401,90]],"headway":{"rush":213,"midday":267,"evening":316,"night":710}},{"ref":"M","segs":[[409,408,120],[408,407,120],[407,406,90],[406,405,90],[405,404,90],[404,403,90],[403,402,150],[402,403,150],[403,404,90],[404,405,90],[405,406,90],[406,407,120],[407,408,120],[408,409,120],[322,323,120],[323,324,90],[324,325,90],[325,326,90],[326,327,90],[327,328,120],[328,329,90],[329,330,90],[330,331,90],[331,332,90],[332,333,120],[333,230,150],[230,231,120],[231,232,150],[232,233,150],[233,259,120],[259,260,90],[260,261,90],[261,262,120],[262,263,90],[263,264,120],[264,265,150],[265,414,210],[414,413,450],[413,412,60],[412,411,90],[411,410,90],[410,409,60],[409,410,90],[410,411,90],[411,412,60],[412,413,60],[413,414,450],[414,265,180],[265,264,180],[264,263,90],[263,262,90],[262,261,120],[261,260,90],[260,259,90],[259,233,120],[233,232,150],[232,231,120],[231,230,120],[230,333,150],[333,332,120],[332,331,120],[331,330,90],[330,329,90],[329,328,90],[328,327,120],[327,326,90],[326,325,120],[325,324,90],[324,323,90],[323,322,120]],"headway":{"rush":460,"midday":485,"evening":738,"night":826}},{"ref":"N","segs":[[433,434,90],[434,435,90],[435,436,90],[436,437,120],[437,438,60],[438,439,150],[439,440,270],[440,441,120],[441,442,150],[442,443,120],[443,444,90],[444,445,120],[445,446,60],[446,447,60],[447,448,90],[448,449,90],[449,450,90],[450,451,90],[451,452,120],[452,453,120],[453,454,90],[454,455,120],[455,456,180],[456,457,120],[457,458,120],[458,459,180],[459,460,120],[460,461,90],[461,462,120],[462,463,90],[463,464,90],[464,465,150],[465,466,90],[466,467,90],[467,420,180],[420,421,90],[421,422,120],[422,423,90],[423,424,90],[424,425,90],[425,426,120],[426,427,120],[427,428,60],[428,285,270],[285,428,240],[428,427,60],[427,426,120],[426,425,120],[425,424,90],[424,423,90],[423,422,90],[422,421,150],[421,420,90],[420,467,180],[467,466,90],[466,465,90],[465,464,150],[464,463,90],[463,462,90],[462,461,120],[461,460,90],[460,459,120],[459,458,180],[458,457,90],[457,456,120],[456,455,240],[455,454,90],[454,453,90],[453,452,90],[452,451,150],[451,450,90],[450,449,90],[449,448,90],[448,447,90],[447,446,60],[446,445,60],[445,444,120],[444,443,90],[443,442,120],[442,441,150],[441,440,90],[440,439,240],[439,438,150],[438,437,90],[437,436,90],[436,435,120],[435,434,60],[434,433,120],[458,429,450],[429,448,270],[448,445,180],[445,448,150],[448,429,240],[429,458,510],[467,464,240],[464,459,330],[459,429,630],[429,459,660],[459,464,360],[464,467,210],[444,442,180],[442,232,180],[232,430,120],[430,431,150],[431,432,90],[432,431,120],[431,430,120],[430,232,120],[232,442,180],[442,444,180],[429,450,120]],"headway":{"rush":497,"midday":467,"evening":758,"night":969}},{"ref":"Q","segs":[[432,431,120],[431,430,120],[430,232,120],[232,442,180],[442,443,120],[443,444,90],[444,445,90],[445,446,60],[446,447,60],[447,448,90],[448,449,90],[449,450,90],[450,429,120],[429,458,510],[458,267,120],[267,268,180],[268,269,180],[269,270,90],[270,271,90],[271,272,90],[272,273,60],[273,274,90],[274,275,90],[275,276,60],[276,277,120],[277,278,150],[278,279,120],[279,280,60],[280,281,120],[281,282,180],[282,283,120],[283,284,120],[284,285,90],[285,284,90],[284,283,90],[283,282,120],[282,281,150],[281,280,120],[280,279,60],[279,278,120],[278,277,150],[277,276,120],[276,275,60],[275,274,90],[274,273,90],[273,272,30],[272,271,90],[271,270,90],[270,269,90],[269,268,180],[268,267,120],[267,458,180],[458,429,480],[429,450,120],[450,449,90],[449,448,90],[448,447,90],[447,446,60],[446,445,60],[445,444,90],[444,443,120],[443,442,120],[442,232,180],[232,430,120],[430,431,150],[431,432,90],[429,448,270],[448,445,180],[444,442,180],[442,444,150],[445,448,150],[448,429,240]],"headway":{"rush":419,"midday":471,"evening":576,"night":916}},{"ref":"R","segs":[[455,456,210],[456,457,120],[457,458,120],[458,459,180],[459,460,120],[460,461,120],[461,462,90],[462,463,90],[463,464,120],[464,465,150],[465,466,90],[466,467,90],[467,468,120],[468,469,90],[469,470,120],[470,471,120],[471,470,120],[470,469,120],[469,468,90],[468,467,120],[467,466,90],[466,465,90],[465,464,150],[464,463,120],[463,462,90],[462,461,90],[461,460,120],[460,459,120],[459,458,180],[458,457,90],[457,456,120],[456,455,240],[322,323,120],[323,324,90],[324,325,90],[325,326,90],[326,327,90],[327,328,120],[328,329,90],[329,330,90],[330,331,90],[331,332,90],[332,333,120],[333,334,120],[334,440,330],[440,441,120],[441,442,150],[442,443,120],[443,444,90],[444,445,90],[445,446,60],[446,447,90],[447,448,120],[448,449,90],[449,450,150],[450,451,90],[451,452,120],[452,453,120],[453,454,90],[454,455,120],[455,454,120],[454,453,60],[453,452,120],[452,451,150],[451,450,90],[450,449,150],[449,448,90],[448,447,120],[447,446,90],[446,445,60],[445,444,90],[444,443,90],[443,442,120],[442,441,150],[441,440,90],[440,334,360],[334,333,120],[333,332,120],[332,331,120],[331,330,90],[330,329,90],[329,328,90],[328,327,120],[327,326,90],[326,325,120],[325,324,90],[324,323,90],[323,322,120],[442,232,210],[232,430,120],[430,431,150],[431,432,90],[464,234,240],[234,238,270],[238,243,330]],"headway":{"rush":455,"midday":458,"evening":758,"night":840}},{"ref":"SI","segs":[[495,494,180],[494,493,120],[493,492,120],[492,491,180],[491,490,120],[490,489,120],[489,488,120],[488,487,60],[487,486,120],[486,485,120],[485,484,120],[484,483,120],[483,482,120],[482,481,120],[481,480,120],[480,479,120],[479,478,120],[478,477,120],[477,476,120],[476,475,180],[475,476,180],[476,477,120],[477,478,120],[478,479,120],[479,480,120],[480,481,120],[481,482,120],[482,483,120],[483,484,120],[484,485,120],[485,486,120],[486,487,120],[487,488,60],[488,489,120],[489,490,120],[490,491,120],[491,492,180],[492,493,120],[493,494,120],[494,495,180],[486,495,780],[495,483,960]],"headway":{"rush":675,"midday":1400,"evening":1800,"night":1527}},{"ref":"W","segs":[[433,434,90],[434,435,90],[435,436,90],[436,437,120],[437,438,60],[438,439,150],[439,440,270],[440,441,120],[441,442,150],[442,443,120],[443,444,90],[444,445,90],[445,446,60],[446,447,90],[447,448,120],[448,449,90],[449,450,150],[450,451,90],[451,452,120],[452,453,120],[453,454,120],[454,455,120],[428,427,60],[427,426,120],[426,425,120],[425,424,90],[424,423,90],[423,422,90],[422,421,150],[421,420,90],[420,467,180],[467,466,90],[466,465,90],[465,464,150],[464,463,120],[463,462,90],[462,461,90],[461,460,120],[460,459,120],[459,458,180],[458,457,90],[457,456,120],[456,455,240],[455,454,120],[454,453,60],[453,452,120],[452,451,150],[451,450,90],[450,449,150],[449,448,90],[448,447,120],[447,446,90],[446,445,60],[445,444,90],[444,443,90],[443,442,120],[442,441,150],[441,440,90],[440,439,240],[439,438,150],[438,437,90],[437,436,90],[436,435,120],[435,434,60],[434,433,120],[455,456,210],[456,457,120],[457,458,120],[458,459,180],[459,460,120],[460,461,120],[461,462,90],[462,463,90],[463,464,120],[464,234,240],[234,238,270],[238,243,330],[464,465,150],[465,466,90],[466,467,90],[467,420,180],[420,421,90],[421,422,120],[422,423,90],[423,424,90],[424,425,90],[425,426,120],[426,427,120],[427,428,60]],"headway":{"rush":568,"midday":593,"evening":1309,"night":1800}},{"ref":"Z","segs":[[319,320,60],[320,361,240],[361,363,180],[363,364,90],[364,366,180],[366,368,150],[368,369,90],[369,371,150],[371,372,60],[372,373,90],[373,374,60],[374,376,150],[376,409,180],[409,413,240],[413,414,450],[414,415,90],[415,416,120],[416,417,90],[417,418,90],[418,419,90],[419,418,120],[418,417,120],[417,416,120],[416,415,150],[415,414,120],[414,413,450],[413,409,240],[409,376,180],[376,374,150],[374,373,60],[373,372,90],[372,371,60],[371,369,150],[369,368,90],[368,366,150],[366,364,180],[364,363,90],[363,361,180],[361,320,240],[320,319,60]],"headway":{"rush":1800,"midday":1800,"evening":1800,"night":1800}}],"transfers":[[9,183,180],[22,196,180],[24,174,180],[24,177,180],[24,198,300],[24,444,180],[29,263,300],[29,379,180],[57,105,180],[62,205,180],[62,286,180],[62,453,420],[63,107,300],[63,206,180],[63,418,300],[66,110,300],[66,456,180],[69,267,180],[69,459,180],[73,474,180],[87,398,300],[104,255,180],[107,206,180],[107,418,300],[110,456,180],[142,232,300],[142,440,180],[143,295,180],[144,172,180],[144,176,180],[148,380,180],[148,448,180],[150,265,180],[152,416,180],[152,429,180],[152,451,180],[153,417,180],[161,328,180],[168,439,180],[169,294,300],[169,335,180],[172,176,300],[173,260,180],[174,177,300],[174,198,180],[174,444,180],[177,198,300],[177,444,180],[186,257,180],[198,444,300],[201,378,120],[202,264,180],[205,286,300],[205,453,420],[206,418,180],[208,457,120],[212,472,180],[218,373,180],[218,395,180],[232,440,300],[238,422,180],[261,445,180],[263,379,180],[267,459,300],[286,453,240],[294,335,180],[298,414,180],[304,461,180],[339,384,180],[373,395,180],[380,448,180],[391,406,180],[416,429,180],[416,451,300],[429,451,180]]}