{"attribution":"Data © OpenStreetMap contributors, ODbL","fetched":"2026-07-02","venues":[{"id":"n380044344","name":"Pedro's","lat":40.70253,"lng":-73.986552,"cat":"restaurant","vegan":1,"tea":0,"cuisine":"mexican","addr":"73 Jay Street","web":"https://pedrosbrooklyn.com","tel":"+1-718-797-2851","hours":"Mo-We 12:00-22:00, Th-Sa 12:00-24:00, Su 12:00-22:00"},{"id":"n419362699","name":"The Musket Room","lat":40.723919,"lng":-73.993781,"cat":"restaurant","vegan":1,"tea":0,"cuisine":"continental;eclectic","addr":"","web":"https://www.musketroom.com","tel":"+1-212-219-0764","hours":"Tu-Sa 17:00-23:00"},{"id":"n419364720","name":"Van Leeuwen","lat":40.686704,"lng":-73.990147,"cat":"restaurant","vegan":1,"tea":0,"cuisine":"","addr":"81 Bergen Street","web":"https://vanleeuwenicecream.com/location/boerum-hill/","tel":"+1-347-763-2979","hours":"Mo-Su 11:00-24:00"},{"id":"n475485737","name":"Van Leeuwen Ice Cream","lat":40.703183,"lng":-73.994707,"cat":"restaurant","vegan":1,"tea":0,"cuisine":"","addr":"1 Water Street","web":"https://vanleeuwenicecream.com/scoop-shops/#New-York","hours":"11:00-23:30"},{"id":"n566313758","name":"The Inwood Farm","lat":40.872799,"lng":-73.918421,"cat":"restaurant","vegan":1,"tea":0,"cuisine":"american","addr":"600 West 218th Street","web":"https://www.theinwoodfarm.com/","tel":"+1-212-942-7451","hours":"Mo-Fr 07:00-22:30; Sa 07:00-23:00; Su 08:00-22:00"},{"id":"n746176794","name":"Starbucks","lat":40.793842,"lng":-73.97277,"cat":"cafe","vegan":1,"tea":0,"cuisine":"coffee_shop","addr":"2525 Broadway","web":"https://www.starbucks.com/store-locator/store/13552/95th-broadway-2525-broadway-new-york-ny-100256924-us","tel":"+1 212-316-0374","hours":"Mo-Fr 05:00-20:30; Sa-Su 06:00-20:30"},{"id":"n870317225","name":"Starbucks","lat":40.759305,"lng":-73.952923,"cat":"cafe","vegan":1,"tea":0,"cuisine":"coffee_shop","addr":"455 Main Street","web":"https://www.starbucks.com/store-locator/store/7098/roosevelt-island-455-main-street-new-york-ny-100440192-us","tel":"+1 212-371-1298","hours":"Mo-Fr 06:00-21:00; Sa 07:00-21:00; Su 07:00-20:00"},{"id":"n883181314","name":"Starbucks","lat":40.7491,"lng":-73.983903,"cat":"cafe","vegan":1,"tea":0,"cuisine":"coffee_shop","addr":"373 5th Avenue","web":"https://www.starbucks.com/store-locator/store/8588/35th-5th-373-5th-avenue-new-york-ny-100163307-us","tel":"+1 212-213-5363"},{"id":"n883234965","name":"Chipotle","lat":40.748429,"lng":-73.985033,"cat":"restaurant","vegan":1,"tea":0,"cuisine":"mexican","addr":"350 5th Avenue","web":"https://locations.chipotle.com/ny/new-york/350-5th-ave","tel":"+1 646-755-3479","hours":"Mo-Su 10:45-23:00"},{"id":"n886702490","name":"Starbucks","lat":40.727207,"lng":-73.995481,"cat":"cafe","vegan":1,"tea":0,"cuisine":"coffee_shop","addr":"665 Broadway","web":"https://www.starbucks.com/store-locator/store/16853/broadway-and-bond-665-broadway-new-york-ny-100122300-us","tel":"+1-917-534-0799","hours":"Mo-Su 06:00-21:00"},{"id":"n889472802","name":"Starbucks","lat":40.715522,"lng":-74.008983,"cat":"cafe","vegan":1,"tea":0,"cuisine":"coffee_shop","addr":"125 Chambers Street","web":"https://www.starbucks.com/store-locator/store/8692/chambers-and-west-broadway-125-chambers-street-new-york-ny-100071331-us","tel":"+1 212-791-6368","hours":"Mo-Sa 06:00-19:00; Su 06:00-18:30"},{"id":"n910822719","name":"Chipotle","lat":40.706722,"lng":-74.00698,"cat":"restaurant","vegan":1,"tea":0,"cuisine":"mexican","addr":"100 Maiden Lane","web":"https://locations.chipotle.com/ny/new-york/100-maiden-ln","tel":"+1 212-742-2690","hours":"10:45-22:00"},{"id":"n999526102","name":"Whole Foods Market","lat":40.768396,"lng":-73.982675,"cat":"restaurant","vegan":1,"tea":0,"cuisine":"","addr":"10 Columbus Circle","web":"https://www.wholefoodsmarket.com/stores/columbuscircle","tel":"+1 212-823-9600","hours":"Mo-Su 07:00-22:00"},{"id":"n1116977313","name":"DSK Brooklyn","lat":40.685756,"lng":-73.973505,"cat":"restaurant","vegan":1,"tea":0,"cuisine":"german","addr":"710 Fulton Street","web":"https://dsk-brooklyn.com","tel":"+1-347-841-4495","hours":"Mo-Th 15:00-22:00; Fr-Su 12:00-22:00"},{"id":"n1297282199","name":"Chipotle","lat":40.745354,"lng":-73.982823,"cat":"restaurant","vegan":1,"tea":0,"cuisine":"mexican","addr":"464 Park Avenue South","web":"https://locations.chipotle.com/ny/new-york/464-park-ave-s","tel":"+1 212-689-0305","hours":"Mo-Su 10:45-23:00"},{"id":"n1383909209","name":"Chipotle","lat":40.766001,"lng":-73.982882,"cat":"restaurant","vegan":1,"tea":0,"cuisine":"mexican","addr":"235 West 56th Street","web":"https://locations.chipotle.com/ny/new-york/235-w-56th-street","tel":"+1 646-626-6520"},{"id":"n1383935410","name":"Starbucks","lat":40.767511,"lng":-73.982943,"cat":"cafe","vegan":1,"tea":0,"cuisine":"coffee_shop","addr":"4 Columbus Circle","web":"https://www.starbucks.com/store-locator/store/13904/58th-eighth-4-columbus-circle-new-york-ny-100191100-us","tel":"+1-212-265-0658","hours":"Mo-Sa 06:00-19:00; Su 07:00-18:00"},{"id":"n1383942697","name":"Starbucks","lat":40.767634,"lng":-73.981287,"cat":"cafe","vegan":1,"tea":0,"cuisine":"coffee_shop","addr":"240 Central Park South","web":"https://www.starbucks.com/store-locator/store/1030514/59th-broadway-240-central-park-south-new-york-ny-100191457-us","tel":"+1-718-635-9564","hours":"Mo-Fr 06:00-22:00; Sa-Su 07:00-22:00"},{"id":"n1383954690","name":"Starbucks","lat":40.76495,"lng":-73.979109,"cat":"cafe","vegan":1,"tea":0,"cuisine":"coffee_shop","addr":""},{"id":"n1383955759","name":"Carnegie Diner & Cafe","lat":40.765737,"lng":-73.980116,"cat":"restaurant","vegan":1,"tea":0,"cuisine":"burger;sandwich;coffee_shop;ice_cream;american;pancake","addr":"205 West 57th Street","web":"https://www.carnegiediner.com/location/carnegie-diner-central-park/","tel":"+1-212-664-1001","hours":"Su-Th 07:00-00:00; Fr-Sa 07:00-01:00"},{"id":"n1584932953","name":"Starbucks","lat":40.743687,"lng":-73.976931,"cat":"cafe","vegan":1,"tea":0,"cuisine":"coffee_shop","addr":"585 2nd Avenue","web":"https://www.starbucks.com/store-locator/store/15875/32nd-2nd-585-2nd-avenue-new-york-ny-10016-us","tel":"+1 212-684-1299","hours":"Mo-Su 06:00-19:30"},{"id":"n1666603088","name":"Starbucks","lat":40.80593,"lng":-73.954529,"cat":"cafe","vegan":1,"tea":0,"cuisine":"coffee_shop","addr":"2195 Frederick Douglass Boulevard","web":"https://www.starbucks.com/store-locator/store/10763/118th-frederick-douglas-blvd-2195-frederick-douglas-boulevard-new-york-ny-10026","tel":"+1 212-662-1239","hours":"Mo-Su 05:30-20:30"},{"id":"n1748991484","name":"Chu Ros Thai","lat":40.789254,"lng":-73.948631,"cat":"restaurant","vegan":1,"tea":0,"cuisine":"thai","addr":"1590 Lexington Avenue","web":"https://churosthainyc.com/","tel":"+1-917-265-8432","hours":"Mo-Su 11:00-22:00"},{"id":"n1748991489","name":"Burritos y Mas","lat":40.788786,"lng":-73.948637,"cat":"restaurant","vegan":1,"tea":0,"cuisine":"","addr":"1571 Lexington Avenue","web":"https://burritosymasnyc.com","tel":"+1-646-918-4748","hours":"Mo-Su 11:00-22:00"},{"id":"n1810737611","name":"Starbucks","lat":40.795232,"lng":-73.965539,"cat":"cafe","vegan":1,"tea":0,"cuisine":"coffee_shop","addr":"805 Columbus Avenue","web":"https://www.starbucks.com/store-locator/store/89150/100th-columbus-805-columbus-avenue-new-york-ny-100255966-us","tel":"+1 212-222-6582","hours":"Mo-Su 06:00-20:00"},{"id":"n1825739845","name":"Starbucks","lat":40.739372,"lng":-74.002526,"cat":"cafe","vegan":1,"tea":0,"cuisine":"coffee_shop","addr":"122 Greenwich Avenue","web":"https://www.starbucks.com/store-locator/store/35545/8th-ave-just-south-of-14th-st-122-greenwich-avenue-space-a-new-york-ny-100117710","tel":"+1 212-366-4672","hours":"Mo-Th 05:30-23:00; Fr 05:30-24:00; Sa 06:00-24:00; Su 06:00-23:00"},{"id":"n1899033653","name":"Starbucks","lat":40.758016,"lng":-73.988999,"cat":"cafe","vegan":1,"tea":0,"cuisine":"coffee_shop","addr":""},{"id":"n1906721425","name":"Burrito Box","lat":40.768276,"lng":-73.985687,"cat":"restaurant","vegan":1,"tea":0,"cuisine":"mexican","addr":"885 9th Avenue","web":"https://elburritobox.com","tel":"+1-212-489-6889","hours":"Mo-Sa 11:00-22:00; Su 12:00-22:00"},{"id":"n1917136131","name":"Starbucks","lat":40.719348,"lng":-73.989998,"cat":"cafe","vegan":1,"tea":0,"cuisine":"coffee_shop","addr":"80 Delancey Street","web":"https://www.starbucks.com/store-locator/store/9589/allen-delancey-80-delancey-street-new-york-ny-100023133-us","tel":"+1 917-534-1397"},{"id":"n1934522990","name":"Chipotle","lat":40.714983,"lng":-74.011137,"cat":"restaurant","vegan":1,"tea":0,"cuisine":"mexican","addr":"275 Greenwich Street","web":"https://locations.chipotle.com/ny/new-york/275-greenwich-street","tel":"+1 646-412-3981","hours":"Mo-Su 10:45-23:00"},{"id":"n1950344608","name":"Starbucks","lat":40.813095,"lng":-73.984347,"cat":"cafe","vegan":1,"tea":0,"cuisine":"coffee_shop","addr":"457 River Road","web":"https://www.starbucks.com/store-locator/store/11601/edgewater-457-river-road-edgewater-nj-070201145-us","tel":"+1 201-945-5343"},{"id":"n1952071262","name":"Starbucks","lat":40.856133,"lng":-73.965412,"cat":"cafe","vegan":1,"tea":0,"cuisine":"coffee_shop","addr":"2160 Lemoine Avenue","web":"https://www.starbucks.com/store-locator/store/6819/acme-fort-lee-1066-2160-lemoine-ave-fort-lee-nj-070246002-us","tel":"+1 201-944-1145"},{"id":"n1994680562","name":"Starbucks","lat":40.784927,"lng":-73.978801,"cat":"cafe","vegan":1,"tea":0,"cuisine":"coffee_shop","addr":"2252 Broadway","web":"https://www.starbucks.com/store-locator/store/11483/81st-broadway-2252-broadway-new-york-ny-100245805-us","tel":"+1 212-721-1267","hours":"Mo 07:00-22:00; Tu-Su 06:00-23:00"},{"id":"n2017643713","name":"Vinnies Pizzeria","lat":40.718871,"lng":-73.956793,"cat":"restaurant","vegan":1,"tea":0,"cuisine":"pizza","addr":"148 Bedford Avenue","web":"https://www.vinniesbrooklyn.com/","tel":"+1-718-782-7078","hours":"Su-Th 11:30-24:00; Fr-Sa 11:30-03:00"},{"id":"n2034011016","name":"Starbucks","lat":40.704382,"lng":-74.013047,"cat":"cafe","vegan":1,"tea":0,"cuisine":"coffee_shop","addr":"2 Broadway","web":"https://www.starbucks.com/store-locator/store/12804/2-broadway-2-broadway-new-york-ny-100042207-us","tel":"+1 212-344-4290","hours":"Mo-Fr 05:30-19:30; Sa, Su 07:00-20:00"},{"id":"n2041169444","name":"Starbucks","lat":40.873542,"lng":-73.908492,"cat":"cafe","vegan":1,"tea":0,"cuisine":"coffee_shop","addr":"40 West 225th Street","web":"https://www.starbucks.com/store-locator/store/12556/target-bronx-riverdale-1798-40-w-225th-st-new-york-ny-104637016-us","tel":"+1 718-733-7199"},{"id":"n2045635529","name":"Starbucks","lat":40.740519,"lng":-73.984262,"cat":"cafe","vegan":1,"tea":0,"cuisine":"coffee_shop","addr":"","web":"https://www.starbucks.com/store-locator/store/90244/25th-lex-50-lexington-avenue-new-york-ny-100102935-us","hours":"Mo-Fr 05:30-23:00; Sa 06:00-23:00; Su 06:00-22:00"},{"id":"n2047269475","name":"Starbucks","lat":40.710192,"lng":-74.00797,"cat":"cafe","vegan":1,"tea":0,"cuisine":"coffee_shop","addr":"130 Fulton Street","web":"https://www.starbucks.com/store-locator/store/10655/nassau-fulton-130-fulton-street-new-york-ny-100382504-us","tel":"+1 212-962-0439","hours":"Mo-Sa 06:00-19:00; Su 06:00-18:30"},{"id":"n2065455029","name":"Starbucks","lat":40.722517,"lng":-73.997904,"cat":"cafe","vegan":1,"tea":0,"cuisine":"coffee_shop","addr":"72 Spring Street","web":"https://www.starbucks.com/store-locator/store/9347/spring-street-at-crosby-st-72-spring-street-new-york-ny-100124019-us","tel":"+1-212-219-2961"},{"id":"n2139124594","name":"Luanne's","lat":40.68961,"lng":-73.969829,"cat":"restaurant","vegan":2,"tea":0,"cuisine":"asian","addr":"","web":"http://www.luanneswildgingernyc.com","tel":"+1-718-638-8868"},{"id":"n2178743034","name":"Starbucks","lat":40.757236,"lng":-73.989117,"cat":"cafe","vegan":1,"tea":0,"cuisine":"coffee_shop","addr":"625 Eighth Avenue","web":"https://www.starbucks.com/store-locator/store/1005154/port-authority-south-wing-625-eighth-avenue-new-york-ny-100181415-us","tel":"+1 212-273-9613"},{"id":"n2183010472","name":"Springbone Kitchen","lat":40.703714,"lng":-74.010478,"cat":"cafe","vegan":1,"tea":0,"cuisine":"health_food","addr":"74 Pearl Street","web":"https://springbone.com","tel":"+1-917-639-3655","hours":"Mo-Th 11:00-19:00; Fr 11:00-15:00"},{"id":"n2183010488","name":"Starbucks","lat":40.705173,"lng":-74.011298,"cat":"cafe","vegan":1,"tea":0,"cuisine":"coffee_shop","addr":"55 Broad Street","web":"https://www.starbucks.com/store-locator/store/16214/55-broad-street-55-broad-street-new-york-ny-100042501-us","tel":"+1 212-742-2490","hours":"Mo-Su 07:00-18:00"},{"id":"n2186614190","name":"Starbucks","lat":40.704607,"lng":-74.009116,"cat":"cafe","vegan":1,"tea":0,"cuisine":"coffee_shop","addr":"110 Pearl Street","web":"https://www.starbucks.com/store-locator/store/7912/pearl-hanover-110-pearl-street-new-york-ny-100053510-us","tel":"+1 212-482-6530"},{"id":"n2269643036","name":"Starbucks","lat":40.849428,"lng":-73.970783,"cat":"cafe","vegan":1,"tea":0,"cuisine":"coffee_shop","addr":"1605 Lemoine Avenue","web":"https://www.starbucks.com/store-locator/store/7256-882/fort-lee-linwood-plaza-136-38-linwood-plaza-fort-lee-nj-070243701-us","tel":"+1 201-947-1112","hours":"Mo-Fr 04:30-21:00; Sa-Su 05:00-21:00"},{"id":"n2279508475","name":"Starbucks","lat":40.730832,"lng":-73.983183,"cat":"cafe","vegan":1,"tea":0,"cuisine":"coffee_shop","addr":"219 1st Avenue","web":"https://www.starbucks.com/store-locator/store/90278/13-th-1st-219-first-avenue-new-york-ny-100033072-us","hours":"Mo-Fr 06:00-20:00; Sa-Su 06:00-19:30"},{"id":"n2310498477","name":"Starbucks","lat":40.771384,"lng":-73.982472,"cat":"cafe","vegan":1,"tea":0,"cuisine":"coffee_shop","addr":"1889 Broadway","web":"https://www.starbucks.com/store-locator/store/17786/63rd-broadway-1889-broadway-new-york-ny-100237005-us","tel":"+1-212-245-1362","hours":"Mo-Fr 05:30-24:00; Sa 06:00-24:00; Su 06:00-23:00"},{"id":"n2357937257","name":"Starbucks","lat":40.776143,"lng":-73.950207,"cat":"cafe","vegan":1,"tea":0,"cuisine":"coffee_shop","addr":"1631 1st Avenue","web":"https://www.starbucks.com/store-locator/store/12482/85th-first-1631-1st-ave-new-york-ny-100284304-us","tel":"+1 212-737-6534","hours":"Mo-Su 06:00-22:00"},{"id":"n2357937268","name":"Starbucks","lat":40.785947,"lng":-73.950703,"cat":"cafe","vegan":1,"tea":0,"cuisine":"coffee_shop","addr":"1491 Lexington Avenue","web":"https://www.starbucks.com/store-locator/store/19114/96th-lexington-1491-lexington-avenue-new-york-ny-100297307-us","tel":"+1 212-369-0313","hours":"Mo-Fr 05:00-21:30; Sa, Su 06:00-20:30"},{"id":"n2358048512","name":"Starbucks","lat":40.733212,"lng":-74.002686,"cat":"cafe","vegan":1,"tea":0,"cuisine":"coffee_shop","addr":"74 Grove Street","web":"https://www.starbucks.com/store-locator/store/18506/7th-ave-at-grove-street-72-grove-street-new-york-ny-100143557-us","hours":"Mo-Th 05:30-23:30; Fr 05:30-00:30; Sa 06:00-00:30; Su 06:00-23:30"},{"id":"n2377128180","name":"Starbucks","lat":40.741105,"lng":-74.001261,"cat":"cafe","vegan":1,"tea":0,"cuisine":"coffee_shop","addr":"124 8th Avenue","web":"https://www.starbucks.com/store-locator/store/16006/8th-16th-124-eighth-avenue-new-york-ny-100115108-us","tel":"+1 212-462-2020","hours":"Mo-Fr 05:30-24:00; Sa,Su 07:00-24:00"},{"id":"n2377128182","name":"Starbucks","lat":40.745188,"lng":-73.998842,"cat":"cafe","vegan":1,"tea":0,"cuisine":"coffee_shop","addr":"300 West 23rd Street","web":"https://www.starbucks.com/store-locator/store/13905/west-23rd-and-8th-300-w-23rd-st-new-york-ny-100112210-us","tel":"+1 646-638-1571","hours":"Mo-Th 05:30-23:00; Fr 05:30-24:00; Sa 06:00-24:00; Su 06:00-23:00"},{"id":"n2384821772","name":"The Donut Pub","lat":40.738845,"lng":-73.999814,"cat":"cafe","vegan":1,"tea":0,"cuisine":"donut","addr":"203 West 14th Street","web":"https://www.donutpub.com/location/west-village","tel":"+1-646-398-7007","hours":"24/7"},{"id":"n2387017165","name":"Awash Ethiopian Restaurant","lat":40.685754,"lng":-73.994442,"cat":"restaurant","vegan":1,"tea":0,"cuisine":"ethiopian","addr":"242 Court Street","web":"https://www.awashny.com","tel":"+1-718-243-2151","hours":"Mo 15:00-21:00, We-Th 16:00-21:00, Fr 15:00-21:30, Sa 13:00-21:30, Su 13:00-21:00"},{"id":"n2407445501","name":"Pizza Suprema","lat":40.750135,"lng":-73.995213,"cat":"restaurant","vegan":1,"tea":0,"cuisine":"pizza","addr":"413 8th Avenue","web":"https://nypizzasuprema.com/","tel":"+1-212-594-8939","hours":"Mo-Su 10:30-23:59"},{"id":"n2423176814","name":"Starbucks","lat":40.769407,"lng":-73.984893,"cat":"cafe","vegan":1,"tea":0,"cuisine":"coffee_shop","addr":"2 Columbus Avenue","web":"https://www.starbucks.com/store-locator/store/8735/59th-columbus-2-columbus-avenue-new-york-ny-100236924-us","tel":"+1 212-489-6757","hours":"Mo-Fr 06:00-20:00; Sa-Su 07:00-18:00"},{"id":"n2477147723","name":"Guru Health Foods","lat":40.709373,"lng":-73.805014,"cat":"restaurant","vegan":1,"tea":0,"cuisine":"","addr":"86-02 Parsons Boulevard","tel":"+1-718-291-7406","hours":"Mo-Sa 10:00-20:00; We 10:00-19:00; Su 10:00-18:00"},{"id":"n2494064642","name":"Van Leeuwen Ice Cream","lat":40.727697,"lng":-73.987713,"cat":"restaurant","vegan":1,"tea":0,"cuisine":"","addr":"","hours":"Mo-Th 12:00-23:00; Fr-Sa 12:00-24:00; Su 12:00-23:00"},{"id":"n2494066985","name":"Salter House","lat":40.690941,"lng":-73.996294,"cat":"cafe","vegan":1,"tea":0,"cuisine":"coffee_shop","addr":"119 Atlantic Avenue","web":"https://salter.house","tel":"+1-347-987-4675","hours":"Mo-Su 08:00-18:00"},{"id":"n2494088708","name":"Brooklyn Pizza Crew","lat":40.672766,"lng":-73.950386,"cat":"restaurant","vegan":1,"tea":0,"cuisine":"pizza","addr":"758B Nostrand Avenue","web":"https://pizzacrew.com","tel":"+1-718-363-1122"},{"id":"n2494109310","name":"Longevity Natural Gourmet Market","lat":40.673829,"lng":-73.96319,"cat":"restaurant","vegan":1,"tea":0,"cuisine":"breakfast;sandwich","addr":"810 Washington Avenue","tel":"+1 718 676 6380"},{"id":"n2494226429","name":"Brooklyn Burgers & Beer","lat":40.674449,"lng":-73.981724,"cat":"restaurant","vegan":1,"tea":0,"cuisine":"burger","addr":"259 5th Avenue","web":"https://www.brooklynburgersandbeer.com/","tel":"+1 718 788 1458","hours":"Tu-We 11:00-22:00; Th 11:00-23:00; Fr-Sa 11:00-24:00; Su 11:00-22:00"},{"id":"n2494373018","name":"Sixteen Mill Bakeshop","lat":40.678365,"lng":-73.985853,"cat":"restaurant","vegan":2,"tea":0,"cuisine":"","addr":"552 Union Street","web":"https://www.sixteenmill.com","hours":"Th-Fr 10:00-17:00; Sa-Su 09:00-16:00"},{"id":"n2522802841","name":"Tap NYC","lat":40.775274,"lng":-73.909228,"cat":"restaurant","vegan":1,"tea":0,"cuisine":"brazilian;health_food","addr":"33-07 Ditmars Boulevard","web":"https://www.eattap.co","hours":"Mo-Su 07:00-20:00"},{"id":"n2523619708","name":"Next Stop Vegan","lat":40.691228,"lng":-73.990689,"cat":"restaurant","vegan":2,"tea":0,"cuisine":"dominican","addr":"88 Livingston Street","tel":"+1 917 9666066","hours":"Mo-Th 11:00-20:00,Fr-Sa 11:00-21:00,Su 11:00-19:00"},{"id":"n2547054885","name":"The Bean","lat":40.725605,"lng":-73.98962,"cat":"cafe","vegan":1,"tea":0,"cuisine":"coffee_shop","addr":"","web":"https://www.thebean.nyc","tel":"+1-917-262-0929","hours":"Mo-Su 07:00-21:00"},{"id":"n2547121461","name":"Hags","lat":40.728974,"lng":-73.984523,"cat":"restaurant","vegan":1,"tea":0,"cuisine":"eclectic","addr":"163 1st Avenue","web":"https://hagsnyc.com","hours":"Mo-Sa 18:00-22:00, Su 11:00-14:30"},{"id":"n2547243346","name":"Van Leeuwen Ice Cream","lat":40.721975,"lng":-73.996093,"cat":"restaurant","vegan":1,"tea":0,"cuisine":"","addr":"45 Spring Street","web":"https://vanleeuwenicecream.com/location/nolita/","tel":"+1-917-639-3147"},{"id":"n2547246907","name":"Nom Wah Nolita","lat":40.72037,"lng":-73.994582,"cat":"restaurant","vegan":1,"tea":0,"cuisine":"chinese","addr":"10 Kenmare Street","tel":"+1-646-478-8242","hours":"Mo-Su 11:30-21:45"},{"id":"n2547630803","name":"Fat Boy's Vegan Burgers","lat":40.679009,"lng":-73.949501,"cat":"restaurant","vegan":1,"tea":0,"cuisine":"burger","addr":"537 Nostrand Avenue","tel":"+1-718-484-0191","hours":"Mo-Fr 12:00-22:00; Sa-Su 12:00-21:00"},{"id":"n2549953088","name":"The Flatiron Room","lat":40.74452,"lng":-73.990483,"cat":"restaurant","vegan":1,"tea":0,"cuisine":"american;continental","addr":"37 West 26th Street","web":"https://www.theflatironroom.com","tel":"+1-212-725-3860","hours":"Mo-Fr 16:00-02:00; Sa 17:00-02:00; Su 17:00-24:00"},{"id":"n2549992943","name":"Giardini Pizza","lat":40.679576,"lng":-73.995161,"cat":"restaurant","vegan":1,"tea":0,"cuisine":"pizza","addr":"363 Smith Street","web":"https://www.giardinipizza.com","tel":"+1 718 596 5320","hours":"Mo-Th 11:00-22:00; Fr 11:00-23:00; Sa-Su 11:00-22:00"},{"id":"n2550012191","name":"Bar Moga","lat":40.727761,"lng":-74.00115,"cat":"restaurant","vegan":1,"tea":0,"cuisine":"japanese;cocktails","addr":"128 West Houston Street","web":"https://www.barmoga.com/","tel":"+1-929-399-5853","hours":"Mo-Th 17:00-00:00; Fr 17:00-00:30; Sa 12:00-15:00,17:00-00:30; Su 12:00-15:00,17:00-22:00"},{"id":"n2550054027","name":"Bklyn Cream","lat":40.681068,"lng":-73.975689,"cat":"restaurant","vegan":1,"tea":0,"cuisine":"","addr":"459 Bergen Street","hours":"Mo-Su 09:00-22:00"},{"id":"n2550057122","name":"Wild","lat":40.678267,"lng":-73.979359,"cat":"restaurant","vegan":1,"tea":0,"cuisine":"american;pizza;brunch","addr":"148 5th Avenue","web":"https://www.eatdrinkwild.com/locations/park-slope/","tel":"+1-347-987-4525","hours":"Mo-Fr 12:00-22:30; Sa-Su 11:00-22:30"},{"id":"n2550059686","name":"La Pizza Italia","lat":40.682024,"lng":-73.976823,"cat":"restaurant","vegan":1,"tea":0,"cuisine":"pizza","addr":"32 5th Avenue","web":"https://lapizzaitalia.dine.online","tel":"+1-347-725-3100","hours":"Mo-Su 10:00-03:00"},{"id":"n2550074062","name":"Santo Brúklin","lat":40.675098,"lng":-73.999562,"cat":"restaurant","vegan":1,"tea":0,"cuisine":"brazilian","addr":"548 Court Street","web":"https://todosossantos.nyc/santo-bruklin","tel":"+1-917-909-1231","hours":"Mo,We-Fr 16:00-22:00; Sa-Su 11:00-16:30,17:30-22:00"},{"id":"n2550089898","name":"Emack & Bolio's","lat":40.659342,"lng":-73.981447,"cat":"restaurant","vegan":1,"tea":0,"cuisine":"","addr":"","web":"https://emackandbolios.com/","hours":"Mo-Th 13:00-21:00, Fr-Sa 13:00-22:00, Su 13:00-21:00"},{"id":"n2550697365","name":"Cooked Klean","lat":40.72923,"lng":-73.780519,"cat":"restaurant","vegan":1,"tea":0,"cuisine":"salad","addr":"188-16 Union Turnpike","web":"https://www.cookedklean.com"},{"id":"n2552691851","name":"Dave's Garden","lat":40.632091,"lng":-74.027708,"cat":"restaurant","vegan":1,"tea":0,"cuisine":"chinese","addr":"7404 3rd Avenue","tel":"+1-718-333-5431","hours":"Mo,We-Su 11:30-22:30"},{"id":"n2552693318","name":"Mint Bay","lat":40.631225,"lng":-74.02805,"cat":"restaurant","vegan":1,"tea":0,"cuisine":"indian","addr":"","web":"https://www.mintbayindiancuisineny.com","tel":"+1-718-333-5599","hours":"Mo-Fr 11:00-15:00, 17:00-23:00; Sa-Su 12:00-23:00"},{"id":"n2552890763","name":"Amitabha Vegan Resaurant","lat":40.73293,"lng":-73.794566,"cat":"restaurant","vegan":2,"tea":0,"cuisine":"chinese","addr":"68-24 Fresh Meadow Lane","tel":"+17184612100"},{"id":"n2552912656","name":"Blaze Pizza","lat":40.740382,"lng":-73.786974,"cat":"restaurant","vegan":1,"tea":0,"cuisine":"pizza","addr":"187-12 Horace Harding Expressway","web":"https://locations.blazepizza.com/new-york/fresh-meadows","hours":"Su-Th 10:30-22:00; Fr,Sa 10:30-23:00"},{"id":"n2552912763","name":"Qdoba","lat":40.73949,"lng":-73.786302,"cat":"restaurant","vegan":1,"tea":0,"cuisine":"mexican","addr":"61-40 188th Street","web":"https://locations.qdoba.com/us/ny/fresh-meadows/61-40-188th-st.html","tel":"+1 718-454-9400","hours":"Su-Th 10:30-22:00; Fr,Sa 10:30-23:00"},{"id":"n2552912764","name":"Taim Mediterranean Kitchen","lat":40.739399,"lng":-73.786292,"cat":"restaurant","vegan":1,"tea":0,"cuisine":"mediterranean","addr":"61-42 188th Street","web":"https://taimkitchen.com","tel":"+1-718 264-3239"},{"id":"n2555123793","name":"Jisu Vegetarian","lat":40.716066,"lng":-73.995308,"cat":"restaurant","vegan":1,"tea":0,"cuisine":"chinese","addr":"125 Canal Street","web":"https://www.jisuvegetarianny.com","tel":"+1-212-470-1064","hours":"Mo-Su 10:00-22:00"},{"id":"n2561983219","name":"Jaew Thai Cuisine","lat":40.644119,"lng":-73.976012,"cat":"restaurant","vegan":1,"tea":0,"cuisine":"thai","addr":"416 Church Avenue","web":"https://jaewthai.com/","tel":"+1-347-365-7702"},{"id":"n2562136780","name":"Zatar","lat":40.663785,"lng":-73.980669,"cat":"cafe","vegan":1,"tea":0,"cuisine":"middle_eastern","addr":"1201 8th Avenue","web":"https://zatar.nyc","tel":"+1-929-252-1287","hours":"Mo-Fr 07:00-22:00; Sa-Su 08:00-22:00"},{"id":"n2564588997","name":"Tikal Cafe","lat":40.690969,"lng":-73.904814,"cat":"cafe","vegan":1,"tea":0,"cuisine":"coffee_shop","addr":"1312 Decatur Street","web":"https://www.tikalcafe2020.com/","tel":"+1-347-789-4790","hours":"Mo-Th 08:00-17:00; Fr-Su 09:00-19:00"},{"id":"n2565391706","name":"Milk Bar","lat":40.675623,"lng":-73.978045,"cat":"cafe","vegan":1,"tea":0,"cuisine":"breakfast;sandwich;coffee_shop","addr":"204 6th Avenue","web":"https://www.milkbarbrooklyn.com","tel":"+1-929-276-3396","hours":"Mo-Fr 08:00-15:00; Sa-Su 08:00-16:00"},{"id":"n2567092056","name":"Moss Vegan Bistro","lat":40.668189,"lng":-73.959178,"cat":"restaurant","vegan":2,"tea":0,"cuisine":"","addr":"943 Carroll Street","hours":"Fr-We 09:00-20:00"},{"id":"n2567528714","name":"Soda Club","lat":40.726691,"lng":-73.979895,"cat":"restaurant","vegan":2,"tea":0,"cuisine":"wine;pasta","addr":"155 Avenue B","web":"https://www.overthrowhospitality.com/venues/sodaclub","tel":"+1-833-328-4588","hours":"Mo-Su 17:00-24:00"},{"id":"n2568120017","name":"Clementine Cafe & Bakery","lat":40.687547,"lng":-73.959581,"cat":"cafe","vegan":1,"tea":0,"cuisine":"sandwich;coffee_shop;ice_cream","addr":"395 Classon Avenue","web":"https://clementinebakery.com/","tel":"+1-713-483-8788","hours":"Mo-Fr 08:00-17:00; Sa-Su 09:00-18:00"},{"id":"n2568197213","name":"Lakou","lat":40.672011,"lng":-73.930668,"cat":"cafe","vegan":1,"tea":0,"cuisine":"haitian","addr":""},{"id":"n2568554173","name":"Maman","lat":40.703157,"lng":-73.991314,"cat":"cafe","vegan":1,"tea":0,"cuisine":"french","addr":"","web":"https://mamannyc.com","tel":"+1-646-360-3431","hours":"Mo-Fr 07:30-18:00, Sa-Su 08:00-18:00"},{"id":"n2568643693","name":"Hartbreakers","lat":40.701704,"lng":-73.922809,"cat":"restaurant","vegan":2,"tea":0,"cuisine":"sandwich","addr":"820 Hart Street","web":"https://www.hartbreakersbk.com/","tel":"+1-718-326-4500","hours":"Mo-Su 11:00-23:00"},{"id":"n2568698397","name":"Bklyn Cake Studio","lat":40.663615,"lng":-73.984117,"cat":"restaurant","vegan":1,"tea":0,"cuisine":"","addr":"","web":"https://www.bklyncakestudio.com","tel":"+1-718-576-3986","hours":"Tu 15:00-21:00; We 14:00-21:00; Sa 12:00-21:00; Su 12:00-19:00"},{"id":"n2568752281","name":"La Casa del Panuozzo","lat":40.667678,"lng":-73.980741,"cat":"restaurant","vegan":1,"tea":0,"cuisine":"pizza","addr":"301 7th Avenue","tel":"+1-917-909-1234","hours":"Mo-Su 09:00-23:00"},{"id":"n2568936223","name":"Pasha Pizza","lat":40.677596,"lng":-73.958933,"cat":"restaurant","vegan":1,"tea":0,"cuisine":"pizza;middle_eastern","addr":"","web":"https://www.pashapp.com","tel":"+1-347-435-0666","hours":"Mo-Th 12:00-22:30, Fr 12:00-03:30, Sa 13:00-03:30"},{"id":"n2572920326","name":"Juici Patties","lat":40.688063,"lng":-73.980122,"cat":"restaurant","vegan":1,"tea":0,"cuisine":"jamaican","addr":"19 Flatbush Avenue","web":"https://juicipattiesusa.com","tel":"+1-347-335-0027","hours":"Mo-Tu 09:00-21:00; Th-Sa 09:00-21:00; Su 09:00-15:00, 16:00-18:00"},{"id":"n2572981730","name":"Slutty Vegan","lat":40.686104,"lng":-73.974261,"cat":"restaurant","vegan":2,"tea":0,"cuisine":"","addr":"690 Fulton Street","web":"https://sluttyveganatl.com/brooklyn/","tel":"+1-855-439-7588","hours":"Tu-Th 12:00-20:00; Fr-Sa 12:00-21:00"},{"id":"n2592129994","name":"Miriam","lat":40.780142,"lng":-73.980766,"cat":"restaurant","vegan":1,"tea":0,"cuisine":"middle_eastern","addr":"300 Amsterdam Avenue","web":"https://uws.miriamrestaurant.com","tel":"+1-646-590-2659","hours":"Mo-Fr 10:00-22:00; Sa-Su 09:00-22:00"},{"id":"n2602395130","name":"No. 1 Chinese","lat":40.767379,"lng":-74.029083,"cat":"restaurant","vegan":1,"tea":0,"cuisine":"chinese","addr":"2504 Palisade Avenue"},{"id":"n2603955335","name":"Chipotle","lat":40.841475,"lng":-73.939853,"cat":"restaurant","vegan":1,"tea":0,"cuisine":"mexican","addr":"4009 Broadway","web":"https://locations.chipotle.com/ny/new-york/4009-broadway","tel":"+1 646-412-5429"},{"id":"n2629277990","name":"Chipotle","lat":40.763606,"lng":-73.977943,"cat":"restaurant","vegan":1,"tea":0,"cuisine":"mexican","addr":"1379 6th Avenue","web":"https://locations.chipotle.com/ny/new-york/1379-avenue-of-the-americas","tel":"+1 646-998-2329","hours":"Mo-Su 10:45-22:00"},{"id":"n2664396742","name":"Mexico Authentico","lat":40.669398,"lng":-73.982987,"cat":"restaurant","vegan":1,"tea":0,"cuisine":"mexican","addr":"396 6th Avenue","web":"https://mexicoautenticonyc.com","tel":"+1-718-369-0849","hours":"Mo-Th 15:00-22:30; Fr 13:00-23:00; Sa 11:00-23:00; Su 11:00-22:00"},{"id":"n2688264646","name":"Starbucks","lat":40.759028,"lng":-73.992603,"cat":"cafe","vegan":1,"tea":0,"cuisine":"coffee_shop","addr":"684 9th Avenue","web":"https://www.starbucks.com/store-locator/store/16465/43rd-9th-593-ninth-ave-new-york-ny-100363706-us","tel":"+1 212-398-9702","hours":"Mo-Fr 05:30-24:00; Sa 06:00-24:00; Su 06:00-23:00"},{"id":"n2701690273","name":"Dough","lat":40.677014,"lng":-73.969308,"cat":"restaurant","vegan":1,"tea":0,"cuisine":"donut","addr":"646 Vanderbilt Avenue","web":"https://www.doughdoughnuts.com/location/brooklyn/","tel":"+1-718-540-9440","hours":"Mo-Sa 09:00-19:00; Su 09:00-18:00 \"or until sold out\""},{"id":"n2702857193","name":"Som Bo","lat":40.741848,"lng":-74.001242,"cat":"restaurant","vegan":1,"tea":0,"cuisine":"asian","addr":"143 8th Avenue","web":"https://www.sombofood.com","tel":"+1-917-261-7947","hours":"Mo-Su 10:45-22:00"},{"id":"n2706023195","name":"Domo Taco","lat":40.673578,"lng":-73.956762,"cat":"restaurant","vegan":1,"tea":0,"cuisine":"asian;mexican","addr":"733 Franklin Avenue","web":"https://www.domotaco.com","tel":"+1-718-484-4485","hours":"Mo-Su 12:00-21:00"},{"id":"n2709389149","name":"Wolfnights","lat":40.745167,"lng":-73.978309,"cat":"restaurant","vegan":1,"tea":0,"cuisine":"sandwich;salad","addr":"489 3rd Avenue","web":"https://www.wolfnights.com/location/muray-hill/","hours":"Mo-Su 11:00-24:00"},{"id":"n2713490449","name":"Nûrish","lat":40.678345,"lng":-73.963695,"cat":"cafe","vegan":1,"tea":0,"cuisine":"health_food;breakfast;coffee_shop","addr":"637 Washington Avenue","web":"https://www.nurishbk.com","tel":"+1-718-484-1122","hours":"Mo-Sa 07:00-20:00; Su 07:00-18:00"},{"id":"n2713495198","name":"Citrico","lat":40.676849,"lng":-73.963418,"cat":"restaurant","vegan":1,"tea":0,"cuisine":"mexican","addr":"681 Washington Avenue","web":"https://citricobrooklyn.com/","tel":"+1-347-955-4519","hours":"Mo-Fr 13:00-22:00; Sa-Su 10:00-22:00"},{"id":"n2718050718","name":"Loco Coco","lat":40.765065,"lng":-73.965936,"cat":"restaurant","vegan":2,"tea":0,"cuisine":"smoothie","addr":"835 Lexington Avenue","tel":"+1 212-888-9900","hours":"Mo-Fr 09:00-20:00; Sa, Su 09:00-19:00"},{"id":"n2723493279","name":"Two Boots Pizza","lat":40.764543,"lng":-73.961697,"cat":"restaurant","vegan":1,"tea":0,"cuisine":"pizza","addr":"1243 2nd Avenue","web":"https://twoboots.com","tel":"+1 646-837-6015","hours":"Mo-Th 11:30-20:30; Fr 11:30-21:30; Sa 12:00-21:30; Su 12:00-20:30"},{"id":"n2723664157","name":"LENOXTHAI","lat":40.763861,"lng":-73.959099,"cat":"restaurant","vegan":1,"tea":0,"cuisine":"thai","addr":"1219 1st Avenue","web":"https://www.lenoxthai.com","tel":"+1-212-466-6189","hours":"Mo-Su 11:30-15:00, 16:00-21:15"},{"id":"n2723743084","name":"Chamoun's Way","lat":40.764508,"lng":-73.958622,"cat":"restaurant","vegan":1,"tea":0,"cuisine":"lebanese","addr":"1237 1st Avenue","web":"https://www.eatchamounsway.com/"},{"id":"n2724057631","name":"Horn's Hook Tavern","lat":40.77479,"lng":-73.951143,"cat":"restaurant","vegan":1,"tea":0,"cuisine":"american","addr":"1589 1st Avenue","web":"https://www.hornshooktavern.com","tel":"+1 212-879-1500","hours":"11:00-04:00"},{"id":"n2724232183","name":"fresh&co","lat":40.778774,"lng":-73.95629,"cat":"restaurant","vegan":1,"tea":0,"cuisine":"health_food;american","addr":"1260 Lexington Avenue","web":"https://freshandco.com","tel":"+1 212-953-7374","hours":"Mo-Fr 11:00-19:00"},{"id":"n2745558099","name":"Uno Pizzeria & Grill","lat":40.783217,"lng":-73.974803,"cat":"restaurant","vegan":1,"tea":0,"cuisine":"pizza","addr":"432 Columbus Avenue","web":"https://restaurants.unos.com/locations/New-York/NY/0350","tel":"+1-212-595-4700","hours":"Mo-Sa 11:00-00:00; Su 11:00-23:00"},{"id":"n2758287019","name":"Starbucks","lat":40.78676,"lng":-73.972214,"cat":"cafe","vegan":1,"tea":0,"cuisine":"coffee_shop","addr":"540 Columbus Avenue","web":"https://www.starbucks.com/store-locator/store/15082/86th-columbus-540-columbus-avenue-new-york-ny-100243405-us","tel":"+1 212-496-4163","hours":"Mo-Th 05:30-22:00; Fr 05:30-22:30; Sa 06:00-22:30; Su 06:00-22:00"},{"id":"n2758640952","name":"Peacefood Cafe","lat":40.785278,"lng":-73.977018,"cat":"restaurant","vegan":2,"tea":0,"cuisine":"","addr":"460 Amsterdam Avenue","web":"https://www.peacefoodnyc.com","hours":"Mo-Su,PH 11:30-21:00"},{"id":"n2761578489","name":"Longwood Fish Market","lat":40.798014,"lng":-73.963529,"cat":"restaurant","vegan":1,"tea":0,"cuisine":"seafood","addr":"903 Columbus Avenue"},{"id":"n2761677767","name":"Roti Roll (Bombay Frankie)","lat":40.802591,"lng":-73.96437,"cat":"restaurant","vegan":1,"tea":0,"cuisine":"indian","addr":"994 Amsterdam Avenue","web":"https://rotirollny.com/","tel":"+12126661500"},{"id":"n2768459581","name":"Jin Ramen","lat":40.815394,"lng":-73.95885,"cat":"restaurant","vegan":1,"tea":0,"cuisine":"","addr":"3183 Broadway","web":"https://125.jinramen.com/","tel":"+16465592862","hours":"Mo-Su 11:30-15:30,17:00-23:00"},{"id":"n2774078095","name":"Rua Thai","lat":40.684712,"lng":-73.991981,"cat":"restaurant","vegan":1,"tea":0,"cuisine":"thai","addr":"204 Smith Street","web":"https://www.ruathai.com/","tel":"+1 718-797-5121","hours":"Mo-Su 11:30-23:30"},{"id":"n2796448528","name":"Blue Bottle Coffee","lat":40.806297,"lng":-73.965491,"cat":"cafe","vegan":1,"tea":0,"cuisine":"coffee_shop","addr":"2901 Broadway","web":"https://bluebottlecoffee.com/cafes/morningside-heights","hours":"Mo-Fr 06:30-19:00; Sa,Su 07:00-19:00"},{"id":"n2797261820","name":"Poción Lounge","lat":40.847528,"lng":-73.938419,"cat":"restaurant","vegan":2,"tea":0,"cuisine":"dominican","addr":"704 West 177th Street","web":"https://www.pocionlounge.com/","tel":"+1-917-472-7336","hours":"Mo-Su 17:00-02:00"},{"id":"n2797659824","name":"Vegan Quick Bites by Next Stop Vegan","lat":40.855966,"lng":-73.928642,"cat":"restaurant","vegan":1,"tea":0,"cuisine":"","addr":"1636 Saint Nicholas Avenue","tel":"+1-917-261-2323","hours":"Th-Su 11:00-20:00"},{"id":"n2797789439","name":"Yummy Thai","lat":40.868076,"lng":-73.920497,"cat":"restaurant","vegan":1,"tea":0,"cuisine":"thai","addr":"4959 Broadway","web":"https://yummythainy.com","tel":"+1-917-529-0811"},{"id":"n2821335221","name":"Chipotle","lat":40.714498,"lng":-74.006276,"cat":"restaurant","vegan":1,"tea":0,"cuisine":"mexican","addr":"281 Broadway","web":"https://locations.chipotle.com/ny/new-york/281-broadway","tel":"+1-212-385-3506","hours":"Mo-Su 10:45-22:00"},{"id":"n2825288972","name":"Buddha Bodai","lat":40.713865,"lng":-73.998798,"cat":"restaurant","vegan":1,"tea":0,"cuisine":"chinese","addr":"5 Mott Street","web":"https://www.buddha-bodai.com","tel":"+1-212-566-8388","hours":"Mo-Fr 11:00-21:30; Sa-Su 10:00-21:30"},{"id":"n2827518409","name":"Third Time's the Charm","lat":40.679184,"lng":-74.010539,"cat":"restaurant","vegan":1,"tea":0,"cuisine":"pizza","addr":"","web":"https://www.charmbarnyc.com/","hours":"We-Th 16:00-21:00, Fr-Sa 16:00-24:00"},{"id":"n2834844701","name":"Le Pain Quotidien","lat":40.772996,"lng":-73.974249,"cat":"cafe","vegan":1,"tea":0,"cuisine":"coffee_shop","addr":"","hours":"Mo-Fr 07:00-19:00; Sa-Su 07:00-21:00"},{"id":"n2838706928","name":"Muz Muz CBD Lounge","lat":40.71253,"lng":-73.943887,"cat":"cafe","vegan":1,"tea":0,"cuisine":"snack","addr":"296 Graham Avenue","web":"https://www.yomuzmuz.com","tel":"+1-917-341-1843"},{"id":"n2838720763","name":"Haymaker's Corner Store","lat":40.712659,"lng":-73.947619,"cat":"restaurant","vegan":1,"tea":0,"cuisine":"","addr":"176 Ainslie Street","hours":"Mo-Su 09:00-21:00"},{"id":"n2839686842","name":"Nitehawk Cinema","lat":40.716063,"lng":-73.962444,"cat":"activity","vegan":1,"tea":0,"cuisine":"american","addr":"136 Metropolitan Avenue","web":"https://nitehawkcinema.com/williamsburg/","tel":"+1 646-963-9288","wd":"Q45034279","desc":"Movie theater in Williamsburg, Brooklyn, New York City, United States"},{"id":"n2839801731","name":"Rose Wolf Coffee","lat":40.714749,"lng":-73.940057,"cat":"cafe","vegan":1,"tea":0,"cuisine":"coffee_shop","addr":"867 Metropolitan Avenue","hours":"07:00-17:00"},{"id":"n2844999924","name":"Cardamom","lat":40.743893,"lng":-73.921232,"cat":"restaurant","vegan":1,"tea":0,"cuisine":"indian","addr":"43-45 43rd Street","web":"https://cardamomny.com","tel":"+1-718-706-9718","hours":"Mo, We-Fr 16:00-22:00; Sa-Su 16:00-22:00"},{"id":"n2869376565","name":"Kam's Kitchen","lat":40.695952,"lng":-73.742293,"cat":"restaurant","vegan":1,"tea":0,"cuisine":"chinese","addr":"217-09 Linden Boulevard","tel":"+1-718-525-1167","hours":"Mo-Th 11:00-23:00, Fr-Sa 11:00-24:00"},{"id":"n2985673609","name":"Xi'an Famous Foods","lat":40.74018,"lng":-74.001972,"cat":"restaurant","vegan":1,"tea":0,"cuisine":"chinese;noodle","addr":"96 8th Avenue","web":"https://www.xianfoods.com","hours":"11:00-21:00"},{"id":"n3061926346","name":"Dun-Well Doughnuts","lat":40.707457,"lng":-73.940248,"cat":"cafe","vegan":1,"tea":0,"cuisine":"donut","addr":"222 Montrose Avenue","web":"https://www.dunwelldoughnuts.com/","tel":"+1-347-294-0871","hours":"Mo-Fr 7:00-19:00; Sa-Su 8:00-19:00"},{"id":"n3064399843","name":"Divya’s Kitchen","lat":40.723715,"lng":-73.988362,"cat":"restaurant","vegan":1,"tea":0,"cuisine":"indian","addr":"25 1st Avenue","web":"https://divyas.com","tel":"+1-212-477-4834","hours":"Mo-Fr 12:00-22:00; Sa-Su 11:30-22:00"},{"id":"n3064399844","name":"Govinda's Kadamba Kafe","lat":40.687621,"lng":-73.982183,"cat":"restaurant","vegan":1,"tea":0,"cuisine":"","addr":"305 Schermerhorn Street","web":"https://www.govindaskitchen.us/about","tel":"+1-718-875-6127","hours":"Th-Su 11:30-16:30"},{"id":"n3071111733","name":"Chipotle","lat":40.734172,"lng":-73.988878,"cat":"restaurant","vegan":1,"tea":0,"cuisine":"mexican","addr":"117 East 14th Street","web":"https://locations.chipotle.com/ny/new-york/117-e-14th-st","tel":"+1 212-260-0641","hours":"Mo-Su 10:45-22:00"},{"id":"n3077594919","name":"Chipotle","lat":40.689214,"lng":-73.992763,"cat":"restaurant","vegan":1,"tea":0,"cuisine":"mexican","addr":"140 Court Street","web":"https://locations.chipotle.com/ny/brooklyn/140-court-st","tel":"+1 718-852-1852","hours":"Mo-Su 10:45-22:00"},{"id":"n3190240012","name":"Chipotle","lat":40.709698,"lng":-74.006443,"cat":"restaurant","vegan":1,"tea":0,"cuisine":"mexican","addr":"111 Fulton Street","web":"https://locations.chipotle.com/ny/new-york/111-fulton-st","tel":"+1 212-964-0435"},{"id":"n3248774671","name":"Starbucks","lat":40.781025,"lng":-73.981008,"cat":"cafe","vegan":1,"tea":0,"cuisine":"coffee_shop","addr":"2138 Broadway","web":"https://www.starbucks.com/store-locator/store/9267/75th-broadway-2140-broadway-new-york-ny-100238208-us","hours":"Mo-Fr 05:30-24:00; Sa 06:00-24:00; Su 06:00-23:00"},{"id":"n3340747647","name":"Chipotle","lat":40.746033,"lng":-73.993994,"cat":"restaurant","vegan":1,"tea":0,"cuisine":"mexican","addr":"283 7th Avenue","web":"https://locations.chipotle.com/ny/new-york/283-7th-ave","tel":"+1 212-645-6270"},{"id":"n3446947494","name":"Chipotle","lat":40.7626,"lng":-73.966082,"cat":"restaurant","vegan":1,"tea":0,"cuisine":"mexican","addr":"1020 3rd Avenue","web":"https://locations.chipotle.com/ny/new-york/1020-3rd-ave","tel":"+1 646-213-9692"},{"id":"n3448719854","name":"India Palace","lat":40.761417,"lng":-73.96016,"cat":"restaurant","vegan":1,"tea":0,"cuisine":"indian","addr":"401 East 62nd Street","web":"https://indiapalacenyc.com","tel":"+1 212-933-0705","hours":"Tu-Su 11:00-23:00"},{"id":"n3507260979","name":"Andrews NYC Diner","lat":40.751674,"lng":-73.989863,"cat":"restaurant","vegan":1,"tea":0,"cuisine":"american;diner","addr":"463 7th Avenue","web":"https://andrewsny.com/","tel":"+1-212-695-1962","hours":"Mo-Th 06:00-22:00; Fr 06:00-23:00; Sa, Su 07:00-23:00"},{"id":"n3507260980","name":"fresh&co","lat":40.748488,"lng":-73.992202,"cat":"restaurant","vegan":1,"tea":0,"cuisine":"","addr":"363 7th Avenue","web":"https://www.freshandco.com/","tel":"+1 212-333-7374","hours":"Mo-Fr 06:00-21:00; Sa, Su 07:00-20:30"},{"id":"n3569401894","name":"Tony's","lat":40.764373,"lng":-73.964292,"cat":"restaurant","vegan":1,"tea":0,"cuisine":"pizza","addr":"1081 3rd Avenue"},{"id":"n3584290132","name":"Gaia Masala & Burger","lat":40.761121,"lng":-73.923274,"cat":"restaurant","vegan":1,"tea":0,"cuisine":"indian;burger","addr":"","tel":"+1-718-889-0530","hours":"Mo-Su 10:00-03:00"},{"id":"n3608052274","name":"Lil' Frankies","lat":40.723585,"lng":-73.988455,"cat":"restaurant","vegan":1,"tea":0,"cuisine":"italian;pizza","addr":"19 1st Avenue","web":"https://www.lilfrankies.com/","tel":"+1-212-420-4900","hours":"Mo-Th 11:00-02:00; Fr-Sa 11:00-04:00; Su 11:00-02:00"},{"id":"n3661038140","name":"Uptown Veg","lat":40.805516,"lng":-73.940543,"cat":"restaurant","vegan":1,"tea":0,"cuisine":"american","addr":"52 East 125th Street","web":"https://uptownvegnyc.com/","tel":"+1-212-987-2660","hours":"Su-Sa 10:00-20:00"},{"id":"n3677076425","name":"South Slope Restaurant & Bar","lat":40.667815,"lng":-73.987644,"cat":"restaurant","vegan":1,"tea":0,"cuisine":"diner","addr":"","web":"https://www.southslopeeatery486.com","tel":"+1-718-499-0005","hours":"Mo-Sa 09:00-21:00; Su 09:00-19:00"},{"id":"n3722347103","name":"Doughnut Plant","lat":40.68064,"lng":-73.974744,"cat":"cafe","vegan":1,"tea":0,"cuisine":"donut","addr":"245 Flatbush Avenue","web":"https://www.doughnutplant.com/","hours":"Mo-Su 07:00-24:00"},{"id":"n3831297082","name":"Chipotle","lat":40.744109,"lng":-73.975942,"cat":"restaurant","vegan":1,"tea":0,"cuisine":"mexican","addr":"604 2nd Avenue","web":"https://locations.chipotle.com/ny/new-york/604-2nd-ave","tel":"+1 917-289-7052"},{"id":"n3832910158","name":"Vatan","lat":40.742351,"lng":-73.980346,"cat":"restaurant","vegan":1,"tea":0,"cuisine":"indian","addr":"409 3rd Avenue","web":"https://vatanny.com","tel":"+1-212-689-5666","hours":"Mo-Su 17:00-21:30"},{"id":"n3865135159","name":"The Buttery Bar","lat":40.723132,"lng":-73.944627,"cat":"restaurant","vegan":1,"tea":0,"cuisine":"comfort_food;new_american;wine","addr":"152 Driggs Avenue","web":"https://butterybar.com","hours":"Mo-Fr 15:00-24:00; Sa 10:00-24:00; Su 10:00-17:00"},{"id":"n3869566324","name":"Bodhi","lat":40.716357,"lng":-73.999174,"cat":"restaurant","vegan":2,"tea":0,"cuisine":"chinese","addr":"77 Mulberry Street","web":"http://www.buddhabodhaikoshervegetarianrestaurantmulberryst.com/","tel":"+1-212-233-2921","hours":"Mo-Fr 10:00-22:00; Sa-Su 09:30-22:30"},{"id":"n3932353662","name":"Eleven Madison Park","lat":40.741598,"lng":-73.98719,"cat":"restaurant","vegan":2,"tea":0,"cuisine":"french;american","addr":"11 Madison Avenue","web":"https://www.elevenmadisonpark.com/","tel":"+1 212-889-0905","hours":"Mo-We 17:30-22:00; Th-Su 12:00-13:00, 17:30-22:00","wd":"Q5359767","desc":"Restaurant in NYC","img":"https://commons.wikimedia.org/wiki/Special:FilePath/Portrait%20Shot%20of%20Eleven%20Madison%20Park%20(9284511683).jpg?width=480"},{"id":"n3938479924","name":"Chloe","lat":40.729202,"lng":-74.001033,"cat":"restaurant","vegan":1,"tea":0,"cuisine":"burger;salad","addr":"185 Bleecker Street","web":"https://www.chloeonbleecker.com/","hours":"Tu-Su 12:00-21:00"},{"id":"n3953943884","name":"Baba's Pierogies","lat":40.67686,"lng":-73.986315,"cat":"cafe","vegan":1,"tea":0,"cuisine":"eastern_european","addr":"","web":"https://www.babasbk.com","tel":"+1 718 222 0777","hours":"Tu-Sa 11:30-22:00; Su 11:30-21:00"},{"id":"n3956967453","name":"Candle","lat":40.741837,"lng":-73.981223,"cat":"restaurant","vegan":2,"tea":0,"cuisine":"international","addr":"","web":"https://candlecafe.nyc","tel":"+1-929-280-1445","hours":"Mo-Sa 11:00-22:30, Su 11:00-21:30"},{"id":"n3966939351","name":"Chipotle","lat":40.744261,"lng":-73.987868,"cat":"restaurant","vegan":1,"tea":0,"cuisine":"mexican","addr":"234 5th Avenue","web":"https://locations.chipotle.com/ny/new-york/234-5th-ave","tel":"+1 212-532-0372","hours":"Mo-Su 10:45-23:00"},{"id":"n4015736092","name":"Jerrell's BETR BRGR","lat":40.723906,"lng":-74.004899,"cat":"restaurant","vegan":2,"tea":0,"cuisine":"burger","addr":"117 6th Avenue","web":"https://jerrellsbetrbrgr.com/"},{"id":"n4058593771","name":"Maoz","lat":40.758094,"lng":-73.989383,"cat":"restaurant","vegan":1,"tea":0,"cuisine":"arab","addr":"683 8th Avenue"},{"id":"n4070145531","name":"Blossom- Chelsea","lat":40.745482,"lng":-74.002283,"cat":"restaurant","vegan":2,"tea":0,"cuisine":"","addr":"187 9th Avenue","web":"https://www.blossomnyc.com/","tel":"+1 212 627 1144","hours":"Su-Th 12:00-14:45; Fr-Sa 17:00-22:00"},{"id":"n4085364218","name":"Beyond Sushi","lat":40.763312,"lng":-73.977203,"cat":"restaurant","vegan":1,"tea":0,"cuisine":"sushi;asian","addr":"62 West 56th Street","web":"https://beyondsushi.com/","tel":"+1 646-964-5097","hours":"Mo-Su 11:30-21:30","wd":"Q136352419"},{"id":"n4128896890","name":"Bareburger","lat":40.767172,"lng":-73.983518,"cat":"restaurant","vegan":1,"tea":0,"cuisine":"","addr":"313 West 57th Street","web":"https://www.bareburger.com/","tel":"+1-212-685-2273","hours":"Fr, Sa 11:00-23:00; Mo, Tu, Su 11:00-22:00; We, Th 11:00-22:30"},{"id":"n4149450808","name":"ABA Turkish Restaurant","lat":40.767439,"lng":-73.983974,"cat":"restaurant","vegan":1,"tea":0,"cuisine":"turkish","addr":"325 West 57th Street","web":"https://abarestaurant.com/","tel":"+1-212-969-1782","hours":"11:00-22:00"},{"id":"n4149654489","name":"MUD","lat":40.729044,"lng":-73.986646,"cat":"cafe","vegan":1,"tea":0,"cuisine":"brunch;coffee_shop","addr":"307 East 9th Street","web":"https://www.mudnyc.com/pages/mudspot","tel":"+1-212-529-8766","hours":"Mo-Fr 07:30-23:00; Sa-Su 08:00-23:00"},{"id":"n4151643713","name":"The Butcher's Daughter","lat":40.720716,"lng":-73.994785,"cat":"cafe","vegan":1,"tea":0,"cuisine":"","addr":"19 Kenmare Street","web":"https://www.thebutchersdaughter.com/location/the-butchers-daughter-nolita/","tel":"+1 212-219-3434","hours":"08:00-21:00"},{"id":"n4193991037","name":"Nature's Grill","lat":40.682324,"lng":-73.993307,"cat":"restaurant","vegan":1,"tea":0,"cuisine":"health_food;burger;juice","addr":"","web":"https://www.naturesgrillcafe.com/","tel":"+1-718-852-5100","hours":"Mo-Su 11:00-21:00"},{"id":"n4194106168","name":"Karazishi Botan","lat":40.683121,"lng":-73.992765,"cat":"restaurant","vegan":1,"tea":0,"cuisine":"japanese;pub;ramen","addr":"","web":"https://www.karazishibotan.com","tel":"+1-347-763-1155","hours":"Mo-We 17:30-22:00; Th 12:00-22:00; Fr-Sa 12:00-23:00; Su 12:00-21:00"},{"id":"n4210170310","name":"Mr. Taka Ramen","lat":40.721278,"lng":-73.989028,"cat":"restaurant","vegan":1,"tea":0,"cuisine":"ramen;japanese","addr":"170 Allen Street","web":"http://www.mrtakaramen.net","tel":"+1-212-254-1508","hours":"Mo-Su 12:00-23:00"},{"id":"n4221091789","name":"Westville East","lat":40.728412,"lng":-73.982007,"cat":"restaurant","vegan":1,"tea":0,"cuisine":"american;salad;burger;fish","addr":"173 Avenue A","web":"https://westvillenyc.com/locations/westville-east/","tel":"+1-212-677-2033","hours":"Mo-Fr 11:30-15:00, Sa,Su 10:00-15:00, Mo-Fr 17:00-22:00, Sa,Su 17:00-22:00"},{"id":"n4250503821","name":"Taïm","lat":40.666492,"lng":-73.981723,"cat":"restaurant","vegan":1,"tea":0,"cuisine":"mediterranean","addr":"341 5th Avenue","web":"https://taimfalafel.com","tel":"+1-347-599-0119","hours":"Mo-Su 11:00-21:00"},{"id":"n4252969089","name":"Bangkok Degree","lat":40.674729,"lng":-73.97578,"cat":"restaurant","vegan":1,"tea":0,"cuisine":"thai","addr":"847A Union Street","web":"https://bangkokdegree.com","tel":"+1-718-576-3962","hours":"Mo-Su 12:00-16:00,17:00-22:00"},{"id":"n4255253129","name":"Chipotle","lat":40.72604,"lng":-73.996486,"cat":"restaurant","vegan":1,"tea":0,"cuisine":"mexican","addr":"625 Broadway","web":"https://locations.chipotle.com/ny/new-york/625-broadway","tel":"+1 646-998-9464"},{"id":"n4262776953","name":"Franchia","lat":40.747546,"lng":-73.98133,"cat":"restaurant","vegan":2,"tea":0,"cuisine":"asian","addr":"12 Park Avenue","web":"https://www.franchia.com/","hours":"Mo-Th 12:00-22:00; Fr 12:00-22:30; Sa 13:00-22:30; Su 17:00-21:30"},{"id":"n4284788108","name":"Le Botaniste","lat":40.765002,"lng":-73.965953,"cat":"restaurant","vegan":2,"tea":0,"cuisine":"international","addr":"833 Lexington Avenue","web":"https://lebotaniste.us/","tel":"+1 917-262-0766","hours":"Mo-Su 11:00-21:00"},{"id":"n4285496392","name":"Lily's Vegan Pantry","lat":40.718641,"lng":-73.99905,"cat":"restaurant","vegan":2,"tea":0,"cuisine":"","addr":"213 Hester Street","web":"https://www.lilysveganpantry.com","tel":"+1-212-334-4428","hours":"Mo-Su 09:30-20:00"},{"id":"n4300313491","name":"Dirt Candy","lat":40.717878,"lng":-73.990789,"cat":"restaurant","vegan":1,"tea":0,"cuisine":"","addr":"86 Allen Street","web":"https://www.dirtcandynyc.com/","tel":"+1 212-228-7732","hours":"Tu-Sa 17:30-20:30","wd":"Q48743720","desc":"Vegetarian restaurant"},{"id":"n4300438090","name":"Tompkins Square Bagels","lat":40.728176,"lng":-73.982179,"cat":"cafe","vegan":1,"tea":0,"cuisine":"bagel","addr":"165 Avenue A","web":"https://www.tompkinssquarebagels.com/","tel":"+1-646-351-6520","hours":"Mo-Fr 07:00-17:00; Sa,Su 07:00-17:00"},{"id":"n4305837196","name":"Mesa Azteca","lat":40.705076,"lng":-73.920194,"cat":"restaurant","vegan":1,"tea":0,"cuisine":"mexican","addr":"91 Wyckoff Avenue","web":"https://www.mesaaztecany.com/","tel":"+1-347-378-2838","hours":"Mo-Su 11:00-22:30"},{"id":"n4311338893","name":"Pasta Eater","lat":40.763557,"lng":-73.988666,"cat":"restaurant","vegan":1,"tea":0,"cuisine":"italian","addr":"","web":"https://www.pastaeaterngo.com/","tel":"+1-212-837-1169","hours":"Mo-Su 11:30-23:00"},{"id":"n4315270690","name":"Ro's Diner","lat":40.708462,"lng":-73.940891,"cat":"restaurant","vegan":2,"tea":0,"cuisine":"american","addr":"197 Meserole Street","web":"https://www.rosdiner.com/","tel":"+1-917-909-1665","hours":"Mo-Su 10:00-25:00"},{"id":"n4315764095","name":"Natural Blend","lat":40.684471,"lng":-73.929139,"cat":"cafe","vegan":1,"tea":0,"cuisine":"coffee_shop","addr":"243 Malcolm X Boulevard","web":"http://naturalblendcafe.com/"},{"id":"n4316309556","name":"Erin McKenna’s Bakery","lat":40.718109,"lng":-73.989617,"cat":"restaurant","vegan":2,"tea":0,"cuisine":"","addr":"248 Broome Street","web":"https://www.erinmckennasbakery.com/","tel":"+1-855-462-2292","hours":"Su,Tu 10:00-19:00; Mo 10:00-18:00; We,Th 10:00-20:00; Fr,Sa 10:00-22:00"},{"id":"n4316480089","name":"Little Mo","lat":40.697032,"lng":-73.933697,"cat":"restaurant","vegan":1,"tea":0,"cuisine":"asian","addr":"","web":"https://www.littlemobk.nyc","tel":"+1-929-210-8100","hours":"Mo-Fr 12:00-23:00; Sa 11:00-23:00; Su 11:00-22:00"},{"id":"n4316480189","name":"Shanti Shack","lat":40.717143,"lng":-73.962413,"cat":"cafe","vegan":1,"tea":0,"cuisine":"","addr":"85 North 3rd Street","web":"https://www.shantishack.com/","hours":"Tu-Su 09:30-16:00"},{"id":"n4317133391","name":"Caravan of Dreams","lat":40.726303,"lng":-73.985706,"cat":"restaurant","vegan":2,"tea":0,"cuisine":"","addr":"405 East 6th Street","web":"http://caravanofdreams.net/","hours":"Mo-Su 11:00-23:00"},{"id":"n4416176890","name":"Turning Point (Breakfast) Restaurant","lat":40.753415,"lng":-74.023434,"cat":"restaurant","vegan":1,"tea":0,"cuisine":"","addr":"1420 Sinatra Drive North","web":"https://theturningpoint.biz/hoboken/","tel":"+1 -201-222-3797","hours":"08:00-15:00"},{"id":"n4442221391","name":"Saravanaa Bhavan","lat":40.741438,"lng":-73.983154,"cat":"restaurant","vegan":1,"tea":0,"cuisine":"indian;south_indian","addr":"81 Lexington Avenue","web":"https://saravanabhavan.com/","tel":"+1-212-684-7755"},{"id":"n4463188675","name":"Aldi","lat":40.733461,"lng":-73.862443,"cat":"restaurant","vegan":1,"tea":0,"cuisine":"","addr":"61-11 Junction Boulevard","web":"https://stores.aldi.us/ny/rego-park/61-11-junction-boulevard","tel":"+1-855-473-1001","hours":"Mo-Su 08:30-21:30"},{"id":"n4491464941","name":"Party On","lat":40.699911,"lng":-73.916215,"cat":"restaurant","vegan":1,"tea":0,"cuisine":"pizza;beer","addr":"254 Irving Avenue","tel":"+1-718-484-1034","hours":"Mo-Su 12:00-04:00","desc":"Formerly Pizza Party, 80’s and 90’s themed dive bar with delightful bites!"},{"id":"n4557451331","name":"Chipotle","lat":40.693625,"lng":-73.986367,"cat":"restaurant","vegan":1,"tea":0,"cuisine":"mexican","addr":"1 Metrotech Center","web":"https://locations.chipotle.com/ny/brooklyn/1-metrotech-center","tel":"+1 917-246-4060","hours":"10:45-22:00"},{"id":"n4559289816","name":"CAVA","lat":40.692432,"lng":-73.988546,"cat":"restaurant","vegan":1,"tea":0,"cuisine":"mediterranean","addr":"345 Adams Street","web":"https://cava.com","tel":"+1-929-296-7809","hours":"Mo-Su 10:45-22:00"},{"id":"n4629883934","name":"Chipotle","lat":40.861228,"lng":-73.970423,"cat":"restaurant","vegan":1,"tea":0,"cuisine":"mexican","addr":"134 Linwood Plaza","web":"https://locations.chipotle.com/nj/fort-lee/134-linwood-plaza","tel":"+1 201-482-5128"},{"id":"n4698294071","name":"Subzi Bazaar Grocery","lat":40.75273,"lng":-73.827298,"cat":"restaurant","vegan":1,"tea":0,"cuisine":"","addr":"42-92 Main Street"},{"id":"n4745482625","name":"Spicy Moon","lat":40.723443,"lng":-73.992596,"cat":"restaurant","vegan":1,"tea":0,"cuisine":"chinese","addr":"265 Bowery","web":"https://www.spicymoonnyc.com","tel":"+1-646-398-8856","hours":"Mo-Su 11:30-22:00"},{"id":"n4757294821","name":"Taïm","lat":40.721992,"lng":-73.996137,"cat":"restaurant","vegan":1,"tea":0,"cuisine":"mediterranean","addr":"45 Spring Street","web":"https://taimfalafel.com","tel":"+1-212-219-0600","hours":"Mo-Su 11:00-21:00","wd":"Q7690498","desc":"Restaurant in New York, United States","img":"https://commons.wikimedia.org/wiki/Special:FilePath/Taim%20DuPont%20Circle%20(cropped).jpg?width=480"},{"id":"n4774165527","name":"Ital Kitchen","lat":40.66959,"lng":-73.957945,"cat":"restaurant","vegan":1,"tea":0,"cuisine":"caribbean","addr":"1032 Union Street","web":"https://www.italkitchenbk.com/"},{"id":"n4816185281","name":"Joe Coffee Company","lat":40.80755,"lng":-73.963682,"cat":"cafe","vegan":1,"tea":0,"cuisine":"coffee_shop","addr":"2950 Broadway","hours":"Mo-Fr 08:00-20:00; Sa-Su 09:00-17:00"},{"id":"n4838600622","name":"Nonna's Pizzeria","lat":40.725971,"lng":-73.941846,"cat":"restaurant","vegan":1,"tea":0,"cuisine":"pizza;italian","addr":"253 Nassau Avenue","web":"https://nonnaspizzeriagreenpoint.com/","tel":"+1-718-389-2600","hours":"Mo-Th 11:00-23:00, Fr-Sa 11:00-24:00, Su 11:00-23:00"},{"id":"n4844172523","name":"The Bean","lat":40.731336,"lng":-73.991978,"cat":"cafe","vegan":1,"tea":0,"cuisine":"coffee_shop","addr":"771 Broadway","web":"https://www.thebean.nyc","tel":"+1-646-781-9620","hours":"Mo-Su 07:00-21:00"},{"id":"n4846152821","name":"Sweetgreen","lat":40.70561,"lng":-74.008261,"cat":"restaurant","vegan":1,"tea":0,"cuisine":"salad","addr":"67 Wall Street","web":"https://order.sweetgreen.com/wall-street/menu","tel":"+1-212-487-9030","hours":"Mo-Su 10:30-21:00"},{"id":"n5023063921","name":"Burger Village","lat":40.670395,"lng":-73.978853,"cat":"restaurant","vegan":1,"tea":0,"cuisine":"burger","addr":"222 7th Avenue","web":"https://www.burgervillage.com/brooklyn","tel":"+1-718-499-4165","hours":"Mo-Su 11:00-22:00"},{"id":"n5097819389","name":"John's of 12th Street","lat":40.730711,"lng":-73.985489,"cat":"restaurant","vegan":1,"tea":0,"cuisine":"italian","addr":"302 East 12th Street","web":"https://www.johnsof12thstreet.com/","tel":"+1-212-475-9531","hours":"Mo-Su 16:00-22:00"},{"id":"n5099589357","name":"Mint Masala","lat":40.729468,"lng":-74.001062,"cat":"restaurant","vegan":1,"tea":0,"cuisine":"indian","addr":"95 MacDougal Street","web":"https://mintmasalaindiancuisine.com","tel":"+1-212-777-2888","hours":"Fr, Sa 11:30-00:00; Mo-Th, Su 11:30-23:00"},{"id":"n5166457633","name":"Plant Blossom","lat":40.769471,"lng":-73.988536,"cat":"restaurant","vegan":1,"tea":0,"cuisine":"","addr":"881 10th Avenue","web":"http://www.plantblossom.com/","tel":"+1 516-874-4968","hours":"11:30-21:00"},{"id":"n5175580260","name":"La Masa Restaurant","lat":40.848025,"lng":-73.856061,"cat":"restaurant","vegan":1,"tea":0,"cuisine":"colombian;spanish;latin_american;burger;wings","addr":"1000 Morris Park Avenue","web":"https://lamasa.us","tel":"+1 718-822-8400","hours":"Mo-Su 10:00-23:00"},{"id":"n5178499860","name":"Wyckoff Starr","lat":40.706139,"lng":-73.922422,"cat":"cafe","vegan":1,"tea":0,"cuisine":"coffee_shop","addr":"30 Wyckoff Avenue","web":"https://wyckoffstarrcoffeeshop.business.site/","tel":"+1-718-484-9766","hours":"Mo-Fr 07:00-18:00; Sa,Su 08:00-18:00"},{"id":"n5190742036","name":"Turntable Chicken Jazz","lat":40.748219,"lng":-73.986415,"cat":"restaurant","vegan":1,"tea":0,"cuisine":"chicken","addr":"20 West 33rd Street","web":"https://turntablenyc.com/","tel":"+1-212-714-9700","desc":"Spacious restaurant with a focus on chicken dishes and decor harkening to the Harlem Renaissance."},{"id":"n5218361627","name":"Pongal","lat":40.742421,"lng":-73.982811,"cat":"restaurant","vegan":1,"tea":0,"cuisine":"indian","addr":"","web":"https://www.pongalnyc.com"},{"id":"n5223969080","name":"Van Leeuwen","lat":40.718401,"lng":-73.961831,"cat":"restaurant","vegan":1,"tea":0,"cuisine":"","addr":"204 Wythe Avenue","web":"https://vanleeuwenicecream.com/location/williamsburg/","tel":"+1-929-337-6907","hours":"Tu-Sa 11:00-01:00; Su-Mo 11:00-24:00"},{"id":"n5231708184","name":"Vegetarian Dim Sum House","lat":40.714923,"lng":-73.998238,"cat":"restaurant","vegan":1,"tea":0,"cuisine":"chinese","addr":"24 Pell Street","tel":"+1-212-577-7176","hours":"Mo-Sa 10:30-21:30"},{"id":"n5266897272","name":"Xi'an Famous Foods","lat":40.772073,"lng":-73.95447,"cat":"restaurant","vegan":1,"tea":0,"cuisine":"chinese","addr":"328 East 78th Street","web":"https://www.xianfoods.com","tel":"+1 212-782-2068","hours":"11:00-21:00"},{"id":"n5300023721","name":"The Vegoist","lat":40.754548,"lng":-73.924642,"cat":"restaurant","vegan":1,"tea":0,"cuisine":"","addr":"35-43 37th Street","tel":"+1 718-729-5665"},{"id":"n5319005167","name":"Union Street Pizza","lat":40.677332,"lng":-73.983363,"cat":"restaurant","vegan":1,"tea":0,"cuisine":"pizza","addr":"","web":"https://www.unionstpizza.com","tel":"+1-347-916-1121","hours":"Mo 11:30-20:00; Tu-Th 11:30-21:00; Fr-Sa 11:30-23:00; Su 11:00-20:00"},{"id":"n5320691267","name":"Namaste","lat":40.676738,"lng":-73.980071,"cat":"restaurant","vegan":1,"tea":0,"cuisine":"indian","addr":"5th Avenue","web":"https://namastebk.com/","tel":"+1-718-857-1951","hours":"Mo-Su 11:00-23:00"},{"id":"n5335337270","name":"Gateway Cafe JWO","lat":40.743299,"lng":-74.02751,"cat":"cafe","vegan":1,"tea":0,"cuisine":"coffee_shop","addr":""},{"id":"n5343766878","name":"Barn Na Thai","lat":40.710173,"lng":-73.899476,"cat":"restaurant","vegan":1,"tea":0,"cuisine":"thai;salad;soup","addr":"","web":"https://barn-na-thai.business.site","tel":"+1-929-387-8065","hours":"Mo-Th, Su 11:30-22:00; Fr-Sa 11:30-22:30"},{"id":"n5343780578","name":"Milo's Yard","lat":40.704576,"lng":-73.910946,"cat":"restaurant","vegan":1,"tea":0,"cuisine":"","addr":"564 Seneca Avenue","web":"http://www.milosyard.nyc/","tel":"+1-347-987-4535","hours":"Mo-Fr 16:00-28:00; Sa, Su 14:00-28:00"},{"id":"n5345991352","name":"Little Egypt","lat":40.708103,"lng":-73.898042,"cat":"restaurant","vegan":1,"tea":0,"cuisine":"mediterranean","addr":"66-28 Fresh Pond Road","tel":"+1-347-987-3860","hours":"Tu-Su 08:00-23:00"},{"id":"n5348387715","name":"Coco Lin Restaurant","lat":40.70988,"lng":-73.89882,"cat":"restaurant","vegan":2,"tea":0,"cuisine":"chinese","addr":"64-19 Fresh Pond Road","web":"http://cocolins.com","tel":"+1-718-416-1688","hours":"Mo-Th 11:00-22:30; Fr, Sa 11:00-23:00; Su 12:00-22:30"},{"id":"n5348392455","name":"Rudy's Pastry Shop","lat":40.700671,"lng":-73.903804,"cat":"cafe","vegan":1,"tea":0,"cuisine":"","addr":"905 Seneca Avenue","web":"http://www.rudysbakeryandcafe.com/","tel":"+1 718-821-5890","hours":"Mo-Sa 06:00-19:00; Su 07:00-17:00"},{"id":"n5349396115","name":"Trans Am Cafe","lat":40.697016,"lng":-73.90625,"cat":"cafe","vegan":2,"tea":0,"cuisine":"","addr":"915 Wyckoff Avenue","web":"https://seitanshelper.com","tel":"+1-718-386-3718","hours":"Mo-Su 08:00-19:00"},{"id":"n5349820069","name":"Green Basket","lat":40.697689,"lng":-73.907982,"cat":"restaurant","vegan":1,"tea":0,"cuisine":"","addr":"852 Wyckoff Avenue","tel":"+1-347-425-7590","hours":"24/7"},{"id":"n5351619383","name":"Cute Cat Café","lat":40.706865,"lng":-73.896912,"cat":"cafe","vegan":1,"tea":0,"cuisine":"coffee_shop;sandwich","addr":"66-69 Fresh Pond Road","web":"https://cutecatcafe.business.site/","tel":"+1-718-417-7500","hours":"Mo-Sa 06:00-22:00; Su 07:00-22:00"},{"id":"n5351725239","name":"Nowadays","lat":40.692867,"lng":-73.901697,"cat":"restaurant","vegan":1,"tea":0,"cuisine":"","addr":"56-06 Cooper Avenue","web":"https://nowadays.nyc/","tel":"+1-347-523-8535","hours":"Su 12:00-16:00,18:00-23:00, Tu-Th 17:00-02:00, Fr 17:00-04:00, Sa 12:00-04:00"},{"id":"n5351849572","name":"Subway","lat":40.756402,"lng":-74.044484,"cat":"restaurant","vegan":1,"tea":0,"cuisine":"sandwich","addr":"1212 Summit Avenue","web":"https://restaurants.subway.com/united-states/nj/jersey-city/1212-summit-avenue","tel":"+1 201-918-2728","hours":"Mo-Fr 07:00-23:30; Sa 08:00-23:30; Su 08:00-22:00"},{"id":"n5364830121","name":"Chachawan Thai Restaurant","lat":40.702568,"lng":-73.901536,"cat":"restaurant","vegan":1,"tea":0,"cuisine":"thai","addr":"881 Woodward Avenue","web":"https://www.chachawannyc.com/","tel":"+1-718-894-4404","hours":"Tu 11:30-15:30; We-Sa 11:30-22:30; Su 12:00-15:30, 16:30-22:30"},{"id":"n5364870785","name":"DADA","lat":40.700736,"lng":-73.896627,"cat":"cafe","vegan":1,"tea":0,"cuisine":"","addr":"60-47 Myrtle Avenue","hours":"Tu-Th,Su 08:00-02:00, Fr,Sa 08:00-04:00"},{"id":"n5364870788","name":"Aunt Ginny's","lat":40.705559,"lng":-73.90707,"cat":"restaurant","vegan":1,"tea":0,"cuisine":"","addr":"652 Woodward Avenue","web":"http://auntginnys.com/","hours":"Mo-We 16:00-26:00; Th, Fr 16:00-28:00; Sa 14:00-28:00; Su 14:00-26:00"},{"id":"n5365021888","name":"Buttah","lat":40.708068,"lng":-73.913899,"cat":"restaurant","vegan":1,"tea":0,"cuisine":"","addr":"377 Onderdonk Avenue","web":"https://www.buttahbakery.com/","tel":"+1-347-833-7899","hours":"Su 09:00-18:00; Tu-Fr 11:00-19:00; Sa 09:00-20:00"},{"id":"n5365035494","name":"Norma's Corner Shoppe","lat":40.702397,"lng":-73.900809,"cat":"cafe","vegan":1,"tea":0,"cuisine":"sandwich;bagel;bakery;pastry;soup","addr":"59-02 Catalpa Avenue","web":"https://www.normascornershoppe.com/","tel":"+1-347-294-0185","hours":"Mo-Su 07:00-20:00"},{"id":"n5366399097","name":"Capybara","lat":40.697794,"lng":-73.907764,"cat":"restaurant","vegan":1,"tea":0,"cuisine":"venezuelan","addr":"853 Wyckoff Avenue","tel":"+1 315-320-5254","hours":"Mo, Th, Fr, Su 08:00-23:00;Tu, We, Sa 09:00-23:00;Mo-We 17:00-03:00;Th 17:30-03:00;Sa-Su 17:00-03:00"},{"id":"n5368706802","name":"Julia's Beer and Wine","lat":40.703167,"lng":-73.903,"cat":"restaurant","vegan":1,"tea":0,"cuisine":"american","addr":"818 Woodward Avenue","web":"https://juliasbeerandwine.com/","tel":"+1-917-909-1314","hours":"Th, Su 11:00-24:00; Mo-We 12:00-24:00; Fr, Sa 11:00-25:00"},{"id":"n5368787741","name":"Milk & Pull","lat":40.701755,"lng":-73.906168,"cat":"cafe","vegan":1,"tea":0,"cuisine":"coffee_shop;pastry;bagel","addr":"778 Seneca Avenue","web":"https://www.milkandpull.com/","tel":"+1-718-821-1155","hours":"Su 08:00-18:00; Mo-Fr 07:00-19:00; Sa 08:00-19:00"},{"id":"n5383263131","name":"Dunkin'","lat":40.75887,"lng":-74.044567,"cat":"restaurant","vegan":1,"tea":0,"cuisine":"donut;coffee_shop","addr":"704 John F. Kennedy Boulevard","web":"https://locations.dunkindonuts.com/en/nj/union-city/704-kennedy-blvd/304619","tel":"+1 201-866-8648","hours":"24/7"},{"id":"n5383448213","name":"Americana Grill & Cafe","lat":40.757805,"lng":-74.044122,"cat":"restaurant","vegan":1,"tea":0,"cuisine":"diner","addr":"600 Summit Avenue","tel":"+1 201-766-4495","hours":"Mo-Th 15:00-03:00; Fr-Su 15:00-04:00"},{"id":"n5384781206","name":"Lucy's Vietnamese Kitchen","lat":40.699722,"lng":-73.915952,"cat":"restaurant","vegan":1,"tea":0,"cuisine":"vietnamese","addr":"262 Irving Avenue","web":"https://lucysvietnamesekitchen.com/","tel":"+1-718-483-9837","hours":"Mo-Su 11:00-24:00"},{"id":"n5397494031","name":"Due Fratelli","lat":40.692787,"lng":-73.854295,"cat":"restaurant","vegan":1,"tea":0,"cuisine":"pizza;italian;sandwich","addr":"90-10 Jamaica Avenue","tel":"+1-718-849-9300","hours":"Mo-Sa 10:00-22:00, Su 11:00-22:00"},{"id":"n5400494705","name":"MamaSushi","lat":40.86618,"lng":-73.92775,"cat":"restaurant","vegan":1,"tea":0,"cuisine":"japanese","addr":"237 Dyckman Street","web":"https://mamasushi.com/","tel":"+1-212-567-2450","hours":"Mo, We 13:00-00:00; Tu, Th, Su 13:00-01:00; Fr, Sa 13:00-02:00"},{"id":"n5404054421","name":"Guadalajara De Dia 2","lat":40.704536,"lng":-73.910856,"cat":"restaurant","vegan":1,"tea":0,"cuisine":"mexican;burrito;tacos;nachos;burger","addr":"566 Seneca Avenue","web":"https://guadalajaradedia2ridgewood.com/","tel":"+1-718-456-3698","hours":"Mo-Su 10:00-21:30"},{"id":"n5417085078","name":"Randy's","lat":40.700337,"lng":-73.906809,"cat":"restaurant","vegan":1,"tea":0,"cuisine":"chinese","addr":"16-93 Putnam Avenue","web":"https://www.randyschinesefood.com/","tel":"+1-718-381-1198","hours":"Mo, We-Su 11:00-23:00"},{"id":"n5418882814","name":"C.Lo Cafe","lat":40.706354,"lng":-73.905447,"cat":"cafe","vegan":1,"tea":0,"cuisine":"guatemalan;burrito;breakfast;tacos","addr":"660 Fairview Avenue","web":"https://www.clocafe.com/ridgewood","tel":"+1-929-295-0099","hours":"Mo-Fr 07:00-17:00; Sa 08:00-17:00; Su 08:00-16:00","desc":"A family owned and operated restaurant offering seasonal Guatemalan inspired dishes."},{"id":"n5419472404","name":"Bklyn Crepe","lat":40.681154,"lng":-73.975573,"cat":"restaurant","vegan":1,"tea":0,"cuisine":"crepe;health_food","addr":"214 Flatbush Avenue","web":"https://www.bklyncrepe.com","tel":"+1-718-638-1023","hours":"Mo-Su 08:00-21:00"},{"id":"n5419491621","name":"Cinnamon snail","lat":40.750324,"lng":-73.9918,"cat":"restaurant","vegan":1,"tea":0,"cuisine":"","addr":"2 Pennsylvania Plaza","web":"http://www.thepennsy.nyc/the-cinnamon-snail/","hours":"Mo-Su 11:00-21:00"},{"id":"n5454170709","name":"East Coast Burger","lat":40.713397,"lng":-73.912162,"cat":"restaurant","vegan":1,"tea":0,"cuisine":"american;burger","addr":"53-21 Metropolitan Avenue","web":"https://ecbny.com/","tel":"+1-718-451-8020","hours":"Mo-Th 11:00-23:00; Sa, Su 11:00-24:00"},{"id":"n5455462001","name":"Cafe Himalaya","lat":40.723193,"lng":-73.987994,"cat":"restaurant","vegan":1,"tea":0,"cuisine":"tibetan","addr":"78 East 1st Street","web":"https://cafehimalaya.weebly.com/","tel":"+1 212-358-0160","hours":"Tu-Sa 12:00-22:00; Su 12:00-21:00"},{"id":"n5487527347","name":"Orchard Grocer","lat":40.717789,"lng":-73.990286,"cat":"restaurant","vegan":2,"tea":0,"cuisine":"","addr":"78 Orchard Street","web":"https://www.orchardgrocer.com","tel":"+1-646-757-9910","hours":"Mo-Su 09:00-20:00","desc":"All-vegan deli and food market inspired by the delicatessens of New York’s past."},{"id":"n5500383167","name":"Industry City Food Hall","lat":40.656216,"lng":-74.007758,"cat":"restaurant","vegan":1,"tea":0,"cuisine":"american;asian;burger;ice_cream;coffee_shop;kebab;pizza;sandwich","addr":"220 #2-A 36th Street","web":"https://industrycity.com","hours":"Mo-Su 09:00-17:00"},{"id":"n5523437746","name":"Chipotle","lat":40.722542,"lng":-73.997486,"cat":"restaurant","vegan":1,"tea":0,"cuisine":"mexican","addr":"71 Spring Street","web":"https://locations.chipotle.com/ny/new-york/71-spring-st","tel":"+1 646-937-5202"},{"id":"n5523561003","name":"Neat","lat":40.721842,"lng":-73.997134,"cat":"restaurant","vegan":2,"tea":0,"cuisine":"burger;salad;sandwich","addr":"25 Cleveland Place","web":"https://neat-food.com/pages/new-nyc-store","hours":"Mo-Su 11:30-22:00"},{"id":"n5536589904","name":"Grand Canyon","lat":40.671386,"lng":-73.977644,"cat":"restaurant","vegan":1,"tea":0,"cuisine":"diner;mexican","addr":"","web":"https://www.grandcanyondinerparkslope.com/menu.html","tel":"+1-718-499-3660","hours":"Mo-Su 07:00-22:00"},{"id":"n5536589906","name":"Pino's La Forchetta","lat":40.671326,"lng":-73.977694,"cat":"restaurant","vegan":1,"tea":0,"cuisine":"pizza","addr":"181 7th Avenue","web":"https://pinoslaforchettapizzerianyc.com/","tel":"+1-718-965-4020","hours":"Mo-Th 10:00-01:00; Fr-Sa 10:00-02:00; Su 10:00-01:00"},{"id":"n5541240618","name":"San Remo","lat":40.700266,"lng":-73.906164,"cat":"restaurant","vegan":1,"tea":0,"cuisine":"pizza;sandwich","addr":"56-01 Myrtle Avenue","web":"https://www.sanremopizza.com/","tel":"+1-718-497-1903","hours":"Su-Th 11:00-22:00; Fr-Sa 11:00-23:00"},{"id":"n5549150577","name":"Tong Dee","lat":40.67738,"lng":-73.979967,"cat":"restaurant","vegan":1,"tea":0,"cuisine":"thai","addr":"180 5th Avenue","web":"https://tongdeethai.com","tel":"+1-718-230-8280","hours":"Mo-Su 11:30-21:45"},{"id":"n5550525387","name":"Starr Bar","lat":40.705005,"lng":-73.923039,"cat":"activity","vegan":1,"tea":0,"cuisine":"burger;mexican;wrap","addr":"214 Starr Street","web":"https://starrbar.com/","tel":"+1-718-821-1100","hours":"Mo-We, Su 17:00-26:00; Th-Sa 17:00-28:00","desc":"Nightlife venue in Bushwick, Brooklyn that celebrates and supports movements for social justice."},{"id":"n5552408327","name":"Johnny's Grand Cafe","lat":40.827742,"lng":-73.850278,"cat":"cafe","vegan":1,"tea":0,"cuisine":"","addr":"1001 Castle Hill Avenue","web":"https://www.jimmysgrandcafe.com","tel":"+1-718-319-1200"},{"id":"n5588989245","name":"Mrs. An Thai","lat":40.78739,"lng":-73.948284,"cat":"restaurant","vegan":1,"tea":0,"cuisine":"thai","addr":"173 East 99th Street","web":"https://www.mrsanthainyc.com","tel":"+1-212-933-9988","hours":"Mo-Su 10:30-23:00"},{"id":"n5596917761","name":"Electric Beets","lat":40.672253,"lng":-73.977313,"cat":"restaurant","vegan":2,"tea":0,"cuisine":"eclectic;health_food","addr":"","web":"https://electricbeets.com","hours":"Mo-Su 07:30-19:00"},{"id":"n5600702493","name":"La Villa","lat":40.674383,"lng":-73.98177,"cat":"restaurant","vegan":1,"tea":0,"cuisine":"pizza;italian","addr":"","web":"http://lavillaparkslope.com","tel":"+1 718 499 9888","hours":"Mo-Th 11:00-22:30; Fr-Sa 11:00-23:00; Su 12:00-22:00"},{"id":"n5627689565","name":"Masalawala & Sons","lat":40.67128,"lng":-73.984344,"cat":"restaurant","vegan":1,"tea":0,"cuisine":"indian","addr":"","web":"https://www.masalawala.com","hours":"Tu-Fr 17:00-22:00; Sa-Su 11:30-14:30, 17:00-22:00"},{"id":"n5633395355","name":"Van Leeuwen","lat":40.67355,"lng":-73.982844,"cat":"restaurant","vegan":1,"tea":0,"cuisine":"","addr":"304 5th Avenue","hours":"Su-Th 11:00-24:00; Fr-Sa 11:00-01:00"},{"id":"n5635174819","name":"Klom Klorm","lat":40.703117,"lng":-73.917064,"cat":"restaurant","vegan":1,"tea":0,"cuisine":"thai","addr":"181 Wyckoff Avenue","web":"https://www.klomklormnyc.com/","tel":"+1-718-489-9188","hours":"Mo-Su 11:00-22:30"},{"id":"n5635871132","name":"Top City Gourmet","lat":40.702918,"lng":-73.91726,"cat":"restaurant","vegan":1,"tea":0,"cuisine":"","addr":"144 Wyckoff Avenue","tel":"+1-347-533-9640","hours":"24/7"},{"id":"n5642678619","name":"Kanan Indian Restaurant","lat":40.671814,"lng":-73.990919,"cat":"restaurant","vegan":1,"tea":0,"cuisine":"indian","addr":"","web":"http://kananindianrestaurant.com","tel":"+1-718-369-3777","hours":"Mo-Su 11:30-15:00, 17:00-22:30"},{"id":"n5693839899","name":"Panda House II","lat":40.763176,"lng":-74.0355,"cat":"restaurant","vegan":1,"tea":0,"cuisine":"chinese","addr":"1703 Bergenline Avenue","tel":"+1 201-866-7605"},{"id":"n5693839901","name":"Juice Bar","lat":40.763083,"lng":-74.035333,"cat":"restaurant","vegan":1,"tea":0,"cuisine":"juice","addr":""},{"id":"n5693951191","name":"Covert","lat":40.684963,"lng":-73.913824,"cat":"cafe","vegan":1,"tea":0,"cuisine":"coffee_shop","addr":"1643 Broadway"},{"id":"n5698095836","name":"Po Wong","lat":40.758242,"lng":-74.044235,"cat":"restaurant","vegan":1,"tea":0,"cuisine":"chinese","addr":"617 Summit Avenue","tel":"+1 201-867-2208"},{"id":"n5703497866","name":"Vegan Grill","lat":40.78011,"lng":-73.94986,"cat":"restaurant","vegan":2,"tea":0,"cuisine":"sandwich;chicken;mexican;mediterranean;italian;burger;breakfast","addr":"1726 2nd Avenue","web":"https://www.vegangrillnyc.com/location/vegan-grill-upper-east-side/","tel":"+1 212-289-5195","hours":"Mo-We,Su 12:00-22:00; Th-Sa 10:00-24:00"},{"id":"n5712022034","name":"Chipotle","lat":40.677201,"lng":-73.972244,"cat":"restaurant","vegan":1,"tea":0,"cuisine":"mexican","addr":"347 Flatbush Avenue","web":"https://www.chipotle.com/locations/#/?address=347%20FLATBUSH%20AVE%20%20BROOKLYN%20NY","tel":"+1 718-230-3102","hours":"Mo-Su 10:45-23:00"},{"id":"n5712072342","name":"Nudie Jeans Repair Shop","lat":40.720928,"lng":-73.994026,"cat":"restaurant","vegan":1,"tea":0,"cuisine":"","addr":"188 Bowery","web":"https://www.nudiejeans.com/stores/nudie-jeans-repair-shop-bowery","tel":"+1 212-966-0902","hours":"Mo-Sa 11:00-19:00; Su 12:00-18:00"},{"id":"n5714335354","name":"Milk Bar","lat":40.677802,"lng":-73.969018,"cat":"cafe","vegan":1,"tea":0,"cuisine":"breakfast;sandwich;coffee_shop","addr":"620 Vanderbilt Avenue","web":"https://www.milkbarbrooklyn.com","tel":"+1-718-230-0844","hours":"Mo-Fr 08:00-15:00, Sa-Su 08:00-16:00"},{"id":"n5715379617","name":"September","lat":40.68393,"lng":-73.917226,"cat":"cafe","vegan":1,"tea":0,"cuisine":"breakfast;coffee_shop","addr":"83 Saratoga Avenue","web":"https://www.septemberbk.com/","tel":"+1-347-221-0295","hours":"Sa, Su 09:00-17:00; Mo-Fr 07:00-16:00"},{"id":"n5715462680","name":"Olmo","lat":40.683207,"lng":-73.917113,"cat":"restaurant","vegan":1,"tea":0,"cuisine":"mexican","addr":"","web":"https://www.olmobk.com/","hours":"We-Th 17:00-22:00, Fr-Sa 17:00-23:00, Su 17:00-22:00"},{"id":"n5716122821","name":"Toad Style","lat":40.686866,"lng":-73.923337,"cat":"restaurant","vegan":1,"tea":0,"cuisine":"sandwich","addr":"93 Ralph Avenue","web":"https://toadstylebk.com/","tel":"+1-347-789-1589","hours":"Mo-Su 11:00-23:00"},{"id":"n5723870934","name":"Caffeine Underground","lat":40.692215,"lng":-73.914522,"cat":"cafe","vegan":1,"tea":0,"cuisine":"coffee_shop","addr":"447 Central Avenue","web":"https://www.caffeineunderground.com/","tel":"+1-718-484-4806","hours":"Mo-Fr 07:00-21:00; Sa 09:00-21:00; Su 09:00-20:00"},{"id":"n5742310959","name":"China Wok","lat":40.682652,"lng":-73.97923,"cat":"restaurant","vegan":1,"tea":0,"cuisine":"chinese","addr":"57 4th Avenue","tel":"+1-718-638-1898","hours":"Mo,We,Th 11:15-22:15; Fr,Sa 11:15-22:30; Su 12:15-22:15"},{"id":"n5742435770","name":"Noodle Fan","lat":40.752082,"lng":-74.045001,"cat":"restaurant","vegan":1,"tea":0,"cuisine":"thai","addr":"514 Central Avenue","tel":"+1 201-420-9014","hours":"11:00-22:00"},{"id":"n5743448065","name":"Hart Bar","lat":40.696354,"lng":-73.929998,"cat":"restaurant","vegan":1,"tea":0,"cuisine":"sandwich;snack","addr":"538 Hart Street","web":"https://www.hartbarnyc.com","tel":"+1-929-433-7368","hours":"Mo-Th 17:00-02:00; Fr-Sa 17:00-04:00; Su 17:00-02:00","desc":"causual cocktail bar with snacks after 19:00, live music and DJs downstairs"},{"id":"n5744312487","name":"Norbert's Pizza","lat":40.696597,"lng":-73.934963,"cat":"restaurant","vegan":1,"tea":0,"cuisine":"","addr":"4 Stuyvesant Avenue","web":"https://www.norbertspizza.com","tel":"+1 718-574-3400","hours":"Mo-Su 12:00-23:00"},{"id":"n5750540226","name":"Pine Box Rock Shop","lat":40.705333,"lng":-73.932694,"cat":"restaurant","vegan":1,"tea":0,"cuisine":"","addr":"12 Grattan Street","web":"https://www.pineboxrockshop.com/","tel":"+1-718-366-6311","hours":"Mo-We 16:00-26:00; Th, Fr 16:00-28:00; Sa 14:00-28:00; Su 12:00-26:00"},{"id":"n5754840634","name":"Blossom Du Jour","lat":40.759589,"lng":-73.991999,"cat":"restaurant","vegan":1,"tea":0,"cuisine":"","addr":"617 9th Avenue","hours":"Mo-Su 10:00-21:00"},{"id":"n5798954995","name":"Bunna Cafe","lat":40.704889,"lng":-73.927863,"cat":"restaurant","vegan":1,"tea":0,"cuisine":"ethiopian","addr":"1084 Flushing Avenue","web":"https://www.bunnaethiopia.net/","tel":"+1-347-295-2227","hours":"Mo-Fr 12:00-23:00; Sa-Su 11:00-16:00, 17:00-23:00"},{"id":"n5807804739","name":"Bijan's","lat":40.688024,"lng":-73.986703,"cat":"restaurant","vegan":1,"tea":0,"cuisine":"mediterranean;persian;brunch","addr":"81 Hoyt Street","web":"https://www.bijansbrooklyn.com/","tel":"+1-718-855-5574","hours":"Mo-Th 11:30-23:00, Fr 11:30-01:00, Sa 11:00-01:00, Su 11:00-23:00"},{"id":"n5810383921","name":"Bravo Kosher Pizza","lat":40.706667,"lng":-74.013514,"cat":"restaurant","vegan":1,"tea":0,"cuisine":"pizza;sushi","addr":"17 Trinity Place","web":"https://www.bravokosherdowntown.com/","tel":"+1-212-344-1111","hours":"Mo-Th 10:00-19:00"},{"id":"n5839192489","name":"Karma Kafe","lat":40.74241,"lng":-74.029189,"cat":"restaurant","vegan":1,"tea":0,"cuisine":"indian","addr":"505 Washington Street","web":"https://www.karmakafe.com/","tel":"+1-201-610-0900","hours":"Su-Th 11:00-22:30; Fr-Sa 11:00-23:30"},{"id":"n5839908901","name":"Chipotle","lat":40.739598,"lng":-74.030048,"cat":"restaurant","vegan":1,"tea":0,"cuisine":"mexican","addr":"229 Washington Street","web":"https://locations.chipotle.com/nj/hoboken/229-washington-street","tel":"+1 201-205-1717"},{"id":"n5842020678","name":"Vegetarian Palate","lat":40.679613,"lng":-73.963935,"cat":"restaurant","vegan":1,"tea":0,"cuisine":"chinese","addr":"","web":"http://www.vegetarianpalate.com/","tel":"+1-718-623-8808","hours":"Mo-Th 11:30-22:30; Fr-Sa 11:30-23:30; Su 12:00-22:30","desc":"Chinese, Asian, vegan, vegetarian"},{"id":"n5849929497","name":"Irving Farm Coffee Roasters","lat":40.72966,"lng":-73.998754,"cat":"cafe","vegan":1,"tea":0,"cuisine":"","addr":"78 West 3rd Street","web":"https://irvingfarmcoffee.com/pages/washington-square","tel":"+1-646-398-7146","hours":"Mo-Fr 07:00-17:00, Sa-Su 09:00-17:00"},{"id":"n5857677523","name":"Gracie Mews Restaurant","lat":40.77344,"lng":-73.951605,"cat":"restaurant","vegan":1,"tea":0,"cuisine":"diner","addr":"1550 1st Avenue","web":"https://www.graciemewsdiner.getsauce.com/","tel":"+1 212-861-2290","hours":"06:00-24:00"},{"id":"n5889398141","name":"Pizza Plus","lat":40.665901,"lng":-73.982218,"cat":"restaurant","vegan":1,"tea":0,"cuisine":"pizza","addr":"","web":"https://pizzaplusmenu.com","tel":"+1-718-768-5327","hours":"Mo-Th 11:30-22:00; Fr-Sa 11:30-23:00; Su 11:30-22:00"},{"id":"n5891774858","name":"Breakfast by Salt’s Cure","lat":40.680338,"lng":-73.9677,"cat":"restaurant","vegan":1,"tea":0,"cuisine":"breakfast","addr":"","web":"https://www.breakfastbysaltscure.com","hours":"We-Su 08:00-15:00"},{"id":"n5909817445","name":"Bettí","lat":40.774931,"lng":-74.020551,"cat":"restaurant","vegan":1,"tea":0,"cuisine":"turkish","addr":""},{"id":"n5912968126","name":"Cafe Chili","lat":40.688003,"lng":-73.993349,"cat":"restaurant","vegan":1,"tea":0,"cuisine":"thai","addr":"","web":"https://www.cafechilithainy.com","tel":"+1-718-260-0066","hours":"Mo-Th 11:30-22:00; Fr-Sa 11:30-22:30; Su 11:30-22:00"},{"id":"n5916553158","name":"Fat Choy","lat":40.718093,"lng":-73.989762,"cat":"restaurant","vegan":1,"tea":0,"cuisine":"asian","addr":"250 Broome Street","web":"https://www.fatchoynyc.com/","tel":"+1 347-778-5889","hours":"Fr, Sa 12:00-21:00; Tu-Th, Su 12:00-20:00"},{"id":"n5916567906","name":"Hotel Chantelle","lat":40.718416,"lng":-73.989054,"cat":"restaurant","vegan":1,"tea":0,"cuisine":"american","addr":"92 Ludlow Street","web":"https://www.hotelchantellenyc.com/","tel":"+1-212-254-9100","hours":"Tu,We 17:00-23:00; Th 17:00-02:00; Fr 15:00-04:00; Sa 11:00-04:00; Su 11:00-22:00"},{"id":"n5937855594","name":"Santa Salsa","lat":40.705563,"lng":-73.922511,"cat":"restaurant","vegan":1,"tea":0,"cuisine":"venezuelan","addr":"","web":"https://santasalsastreet.com/"},{"id":"n5963034386","name":"7 Grain Army","lat":40.716259,"lng":-73.955418,"cat":"cafe","vegan":1,"tea":0,"cuisine":"","addr":"88 Roebling Street","web":"https://www.7grainarmy.com/","hours":"Th-Fr 08:00-15:00;Sa-Su 09:00-15:00"},{"id":"n5970419085","name":"Very Fresh Noodles","lat":40.74216,"lng":-74.00539,"cat":"restaurant","vegan":1,"tea":0,"cuisine":"","addr":"409 West 15th Street","web":"https://www.veryfreshnoodles.com/"},{"id":"n5970809860","name":"Taste of India","lat":40.727123,"lng":-74.038549,"cat":"restaurant","vegan":1,"tea":0,"cuisine":"","addr":""},{"id":"n5978795186","name":"Da Claudio","lat":40.710822,"lng":-74.00763,"cat":"restaurant","vegan":1,"tea":0,"cuisine":"italian","addr":"21 Ann Street","web":"https://www.daclaudionyc.com/","hours":"Mo-Th 11:30-15:00, 17:00-22:00; Fr-Sa 17:00-23:00; Su 17:00-22:00"},{"id":"n5987486738","name":"White Maize","lat":40.68247,"lng":-73.993208,"cat":"restaurant","vegan":1,"tea":0,"cuisine":"latin_american","addr":"","web":"https://www.whitemaizebk.com","tel":"+1-347-946-2493","hours":"Tu-Su 12:00-21:00"},{"id":"n5987826185","name":"Adda","lat":40.726814,"lng":-73.98614,"cat":"restaurant","vegan":1,"tea":0,"cuisine":"indian","addr":"","web":"https://www.addanyc.com","hours":"Tu-Su 17:00-22:00"},{"id":"n5987980586","name":"Los Tacos No.1","lat":40.757422,"lng":-73.987814,"cat":"restaurant","vegan":1,"tea":0,"cuisine":"mexican","addr":"229 West 43rd Street","web":"https://www.lostacos1.com/location/los-tacos-times-square/","tel":"+1 212-574-4696","hours":"Mo-Sa 11:00-22:00; Su 11:00-21:00"},{"id":"n5987980587","name":"A.T.M. Vegan Deli","lat":40.690966,"lng":-73.95591,"cat":"restaurant","vegan":2,"tea":0,"cuisine":"breakfast;sandwich","addr":"525 DeKalb Avenue","web":"https://atmvegandeli.com/","tel":"+1-646-670-3894","hours":"We-Th 11:00-18:00; Fr-Sa 11:00-20:00; Su 11:00-16:00"},{"id":"n6006148886","name":"Chez Alex","lat":40.687523,"lng":-73.923786,"cat":"cafe","vegan":1,"tea":0,"cuisine":"","addr":"","hours":"Mo-Fr 08:30-17:00; Sa,Su 09:00-17:00"},{"id":"n6050149079","name":"Newtown","lat":40.709125,"lng":-73.937195,"cat":"restaurant","vegan":1,"tea":0,"cuisine":"mediterranean","addr":"55 Waterbury Street","web":"https://newtownbk.com/","tel":"+1-347-984-6215","hours":"Mo-Sa 11:00-22:00; Su 11:00-17:00"},{"id":"n6053192785","name":"POST","lat":40.722941,"lng":-73.982927,"cat":"restaurant","vegan":1,"tea":0,"cuisine":"american","addr":"","web":"https://www.post-nyc.com/","tel":"+16469302724","hours":"Mo-Sa 10:00-23:00; Su 10:00-16:00"},{"id":"n6071606246","name":"Roots Cafe","lat":40.662845,"lng":-73.991657,"cat":"cafe","vegan":1,"tea":0,"cuisine":"coffee_shop;breakfast;american","addr":"639 5th Avenue","web":"https://www.rootsbrooklyn.com","tel":"+1-929-301-5535","hours":"Mo-Fr 07:30-16:00; Sa-Su 08:00-16:00"},{"id":"n6088775969","name":"Penny House Cafe","lat":40.676053,"lng":-73.963613,"cat":"cafe","vegan":1,"tea":0,"cuisine":"breakfast;sandwich;coffee_shop","addr":"","web":"http://www.pennyhousecafe.com","hours":"Mo-Su 06:00-18:00"},{"id":"n6128709937","name":"Sol Sips","lat":40.699074,"lng":-73.922556,"cat":"restaurant","vegan":1,"tea":0,"cuisine":"sandwich","addr":"203 Wilson Avenue","web":"https://sol-sips.business.site/","tel":"+1-718-683-0482","hours":"Mo 10:00-20:00; Tu 12:00-19:00; We-Sa 10:00-20:00; Su 10:00-18:00"},{"id":"n6129257460","name":"They Say That","lat":40.690113,"lng":-73.906873,"cat":"restaurant","vegan":1,"tea":0,"cuisine":"thai","addr":"615 Wilson Avenue","tel":"+1 347-968-7519","hours":"Mo-Th 11:00-22:30; Fr-Sa 11:00-23:00"},{"id":"n6129276916","name":"Fire House 2 Deli Grocery","lat":40.68892,"lng":-73.905249,"cat":"restaurant","vegan":1,"tea":0,"cuisine":"breakfast;sandwich","addr":"644 Wilson Avenue","hours":"24/7"},{"id":"n6179753683","name":"Taïm","lat":40.7078,"lng":-74.007746,"cat":"restaurant","vegan":1,"tea":0,"cuisine":"mediterranean","addr":"75 Maiden Lane","web":"https://taimfalafel.com/","tel":"+1 212-226-1248","hours":"11:00-20:30"},{"id":"n6204656993","name":"Izzy Rose","lat":40.68694,"lng":-73.962829,"cat":"restaurant","vegan":1,"tea":0,"cuisine":"snack","addr":"214 Greene Avenue","web":"https://www.izzyrosebk.com/","tel":"+1-929-480-8809","hours":"Mo-Fr 15:00-02:00, Sa-Su 12:00-02:00"},{"id":"n6206430650","name":"Gnocchi on 9th","lat":40.728912,"lng":-73.98633,"cat":"restaurant","vegan":1,"tea":0,"cuisine":"italian","addr":"315 East 9th Street","web":"https://gnocchinyc.com/east-village/","tel":"+1-646-858-0008","hours":"Mo-Su 11:00- 21:00"},{"id":"n6211849520","name":"Claudia's","lat":40.713551,"lng":-73.941286,"cat":"restaurant","vegan":1,"tea":0,"cuisine":"guatemalan;brunch","addr":"39 Bushwick Avenue","web":"https://www.claudiasbk.com","tel":"+1-347-987-3402","hours":"Mo-Tu 10:00-17:00; Th-Sa 10:00-21:00; Su 10:00-17:00","desc":"A family owned and operated restaurant offering seasonal Guatemalan inspired dishes."},{"id":"n6222075595","name":"W4 Noodle House","lat":40.731352,"lng":-74.000465,"cat":"restaurant","vegan":1,"tea":0,"cuisine":"chinese","addr":"144 West 4th Street","web":"https://www.w4noodlehousenewyork.com/","tel":"+1-212-260-7130","hours":"Mo-Th 11:30-21:30, Fr-Sa 11:30-22:30, Su 11:30-21:30"},{"id":"n6231491547","name":"Shun Wei","lat":40.711856,"lng":-73.996757,"cat":"restaurant","vegan":1,"tea":0,"cuisine":"chinese","addr":"45 Catherine Street","web":"https://shunweitogo.com","tel":"+1-212-964-7590","hours":"Mo-Th 11:00-23:00, Fr-Sa 11:00-24:00, Su 12:00-23:00","desc":"A variety of familiar Chinese dishes as well as fried chicken, ribs, and french fries."},{"id":"n6231529909","name":"Jajaja Plantas Mexicanas","lat":40.714283,"lng":-73.990386,"cat":"restaurant","vegan":2,"tea":0,"cuisine":"mexican","addr":"162 East Broadway","web":"https://jajajamexicana.com","tel":"+1 646 883-5453","hours":"Mo-We, Su 11:00-00:00; Th-Sa 11:00-01:00","desc":"Contemporary Mexican spot with an all vegan menu, plus tequila and mezcal cocktails."},{"id":"n6237520255","name":"Bangklyn East Harlem","lat":40.790253,"lng":-73.942941,"cat":"restaurant","vegan":1,"tea":0,"cuisine":"thai","addr":"2051 2nd Avenue","web":"https://bangklyn.com/","tel":"+1 646-429-8128","hours":"Mo-Fr 11:30-22:00; Sa, Su 12:00-22:00"},{"id":"n6278128485","name":"Superiority Burger","lat":40.726447,"lng":-73.983431,"cat":"restaurant","vegan":1,"tea":0,"cuisine":"","addr":"119 Avenue A","web":"https://www.superiorityburger.com/","tel":"+1-646-422-7707","hours":"Mo 12:00-22:00; Tu-We 17:00-23:00; Th 12:00-23:00; Fr 12:00-24:00; Sa 11:00-24:00; Su 11:00-22:00"},{"id":"n6280146793","name":"Public Records","lat":40.682101,"lng":-73.986522,"cat":"restaurant","vegan":1,"tea":0,"cuisine":"coffee_shop;sandwich","addr":"233 Butler Street","web":"https://publicrecords.nyc","tel":"+1-347-529-4869","hours":"Tu-Su 09:00-17:00 \"coffee\" || Tu 14:00-23:00; We 14:00-24:00; Th 14:00-01:00; Fr,Sa 14:00-04:00; Su 14:00-24:00 \"bar\""},{"id":"n6281164644","name":"Confectionery!","lat":40.72732,"lng":-73.983075,"cat":"restaurant","vegan":1,"tea":0,"cuisine":"","addr":"440 East 9th Street","web":"https://lagustasluscious.com/shop/","tel":"+1 646-869-0133","hours":"Mo-Su 12:00-15:30, Mo-Sa 16:15-20:00","desc":"Vegan sweet shop."},{"id":"n6300062996","name":"Greek Xpress","lat":40.659913,"lng":-73.980584,"cat":"restaurant","vegan":1,"tea":0,"cuisine":"greek;pizza","addr":"","web":"https://greekxpress.com","tel":"+1-347-844-9377","hours":"Mo-Th 11:00-22:00, Fr-Sa 11:00-01:00, Su 11:00-22:00"},{"id":"n6300063010","name":"SyKo","lat":40.660276,"lng":-73.98066,"cat":"restaurant","vegan":1,"tea":0,"cuisine":"korean;syrian","addr":"","web":"https://www.sykorestaurant.com/","tel":"+1-929-424-0423","hours":"Tu-Su 11:00-22:00"},{"id":"n6307037084","name":"Wild Ginger Vegan Cafe","lat":40.687894,"lng":-73.989827,"cat":"restaurant","vegan":2,"tea":0,"cuisine":"asian","addr":"","web":"http://www.luanneswildgingernyc.com","tel":"+1-718-858-3880"},{"id":"n6314774119","name":"Planted Cafe","lat":40.68053,"lng":-73.994503,"cat":"cafe","vegan":2,"tea":0,"cuisine":"health_food;breakfast","addr":"","web":"https://www.plantedcommunitycafe.com","tel":"+1-917-909-1986","hours":"Mo-Tu 07:00-20:00, We-Fr 07:00-22:00, Sa-Su 08:00-22:00"},{"id":"n6344011421","name":"Quantum Leap","lat":40.760606,"lng":-73.961484,"cat":"restaurant","vegan":1,"tea":0,"cuisine":"","addr":"1103 1st Avenue","web":"http://quantumleap1stave.com/","tel":"+1 212-371-3888","hours":"Mo-Fr 11:30-21:00; Sa-Su 11:00-21:00"},{"id":"n6361314207","name":"Saffron Indian Cuisine","lat":40.703339,"lng":-73.907404,"cat":"restaurant","vegan":1,"tea":0,"cuisine":"indian","addr":"1819 Palmetto Street","web":"https://www.saffronindianny.com/","tel":"+1-347-457-5896","hours":"11:30-21:45"},{"id":"n6362867801","name":"16 Handles","lat":40.743121,"lng":-73.98026,"cat":"cafe","vegan":1,"tea":0,"cuisine":"frozen_yogurt;health_food","addr":"","hours":"Mo-Th 12:30-23:00; Fr-Sa 12:30-24:00; Su 12:30-23:00"},{"id":"n6397520967","name":"Brooklyn Standard","lat":40.725351,"lng":-73.945675,"cat":"restaurant","vegan":1,"tea":0,"cuisine":"sandwich;breakfast;salad;juice","addr":"188 Nassau Avenue","web":"https://www.brooklynstandarddeli.com/nassau-greenpoint/nassau.html","tel":"+1-718-472-2150","hours":"Mo-Su 07:00-23:00","desc":"Vegetarian-friendly deli with vegan baked goods and some groceries"},{"id":"n6407882846","name":"Plant Made","lat":40.726039,"lng":-73.989773,"cat":"restaurant","vegan":2,"tea":0,"cuisine":"mexican;italian;pizza","addr":"65 2nd Avenue","web":"https://plantmadenyc.com","tel":"+1-212-777-6965","hours":"Mo-Th 12:00-23:00, Fr-Sa 12:00-01:00, Su 12:00-23:00"},{"id":"n6412293526","name":"Coletta Italian Vegan Restaurant","lat":40.740936,"lng":-73.981374,"cat":"restaurant","vegan":1,"tea":0,"cuisine":"italian","addr":"365 3rd Avenue","web":"https://www.colettanyc.com","tel":"+1-646-861-2889","hours":"Mo-Th 16:30-22:30; Fr 16:30-23:30; Sa 11:30-23:30; Su 11:30-22:30","wd":"Q136351737"},{"id":"n6418623098","name":"Ginger Root Vegan","lat":40.762503,"lng":-73.95964,"cat":"restaurant","vegan":2,"tea":0,"cuisine":"chinese","addr":"1164 1st Avenue","web":"https://gingerrootvegan.com/","tel":"+1-646-301-9817","hours":"Mo-Sa 11:00-21:30, Su 12:00-21:30"},{"id":"n6422307085","name":"Tartinery","lat":40.76871,"lng":-73.982797,"cat":"cafe","vegan":1,"tea":0,"cuisine":"french;juice","addr":"10 Columbus Circle","web":"https://www.tartinery.com/location/columbus-circle/","tel":"+1-917-409-1991","hours":"Mo-Sa 08:00-20:00; Su 08:00-19:00"},{"id":"n6426529064","name":"Natural Blend","lat":40.673898,"lng":-73.962848,"cat":"restaurant","vegan":1,"tea":0,"cuisine":"health_food;juice","addr":"","web":"https://veggiebk.blogspot.com","tel":"+1-718-783-1737","hours":"Mo-Fr 08:00-22:30; Sa 10:30-23:00; Su 10:00-19:30"},{"id":"n6426844841","name":"Van Leeuwen","lat":40.680393,"lng":-73.96813,"cat":"restaurant","vegan":1,"tea":0,"cuisine":"","addr":"","web":"https://vanleeuwenicecream.com","tel":"+1-347-240-7453","hours":"Mo-Su 11:00-24:00"},{"id":"n6458026085","name":"Avant Garden","lat":40.725644,"lng":-73.984015,"cat":"restaurant","vegan":2,"tea":0,"cuisine":"eclectic","addr":"95 Avenue A","web":"https://www.avantgardennyc.com","tel":"+1-833-328-4588","hours":"Mo-Su 17:00-23:00"},{"id":"n6479472844","name":"Van Leeuwen Ice Cream","lat":40.72154,"lng":-73.987469,"cat":"restaurant","vegan":1,"tea":0,"cuisine":"pastry","addr":"172 Ludlow Street","web":"https://vanleeuwenicecream.com/location/lower-east-side/","tel":"+1-646-869-2746","hours":"Mo-Su 13:00-24:00"},{"id":"n6498949989","name":"Phorainbow","lat":40.686833,"lng":-73.990233,"cat":"cafe","vegan":1,"tea":2,"cuisine":"vietnamese;bubble_tea","addr":"","web":"https://www.phorainbow145.com/","tel":"+1-718-795-3777","hours":"Mo-Sa 11:00-21:30, Su 11:00-21:00"},{"id":"n6534166846","name":"Sweetgreen","lat":40.689921,"lng":-73.992072,"cat":"restaurant","vegan":1,"tea":0,"cuisine":"salad","addr":"127 Court Street","web":"https://order.sweetgreen.com/court-atlantic/menu","tel":"+1-347-767-6800","hours":"Mo-Su 10:30-22:00"},{"id":"n6542803859","name":"Ahimsa","lat":40.747945,"lng":-73.975821,"cat":"restaurant","vegan":1,"tea":0,"cuisine":"indian","addr":"","web":"https://ahimsanyc.com","tel":"+1-212-228-2022","hours":"Mo-Su 11:00-22:00"},{"id":"n6558575360","name":"The Gradient","lat":40.706804,"lng":-73.922933,"cat":"restaurant","vegan":1,"tea":0,"cuisine":"","addr":"17 Wyckoff Avenue","web":"https://thegradientbk.com","tel":"+1-804-370-4945","hours":"Su 11:00-24:00; Mo-Th 12:00-26:00; Fr 12:00-28:00; Sa 11:00-28:00"},{"id":"n6565329289","name":"Banh Mi Zon","lat":40.725726,"lng":-73.984314,"cat":"restaurant","vegan":1,"tea":0,"cuisine":"vietnamese;sandwich","addr":"443 East 6th Street","web":"https://banhmizon.com/","tel":"+1-646-524-6384","hours":"Mo-Sa 12:00-21:00; Su 12:00-20:00"},{"id":"n6565478400","name":"Spicy Moon","lat":40.726729,"lng":-73.987199,"cat":"restaurant","vegan":1,"tea":0,"cuisine":"chinese","addr":"328 East 6th Street","web":"https://www.spicymoonnyc.com/","tel":"+1 646-429-8471","hours":"Mo-Su 11:30-22:00"},{"id":"n6568734640","name":"The Grand Daddy","lat":40.717721,"lng":-73.992045,"cat":"cafe","vegan":1,"tea":0,"cuisine":"coffee_shop","addr":"290 Grand Street","web":"https://www.thegranddaddy.nyc","tel":"+1-917-388-2233","hours":"Mo-Fr 08:00-20:00; Sa-Su 09:00-20:00"},{"id":"n6606935746","name":"Blossom on Columbus","lat":40.78539,"lng":-73.972724,"cat":"restaurant","vegan":2,"tea":0,"cuisine":"","addr":"507 Columbus Avenue","web":"https://blossomnyc.com/columbus","tel":"+1 212 875-2600","hours":"Mo-Su 11:30-15:30, 05:00-22:00"},{"id":"n6630118961","name":"Bareburger LES","lat":40.721633,"lng":-73.98855,"cat":"restaurant","vegan":1,"tea":0,"cuisine":"burger","addr":"173 Orchard Street","web":"https://bareburger.com/","tel":"+1-212-510-8610","hours":"We, Th 11:00-23:00; Fr, Sa 11:00-01:00; Mo, Tu, Su 11:00-22:00"},{"id":"n6670244827","name":"Finestra Restaurant","lat":40.767558,"lng":-73.95297,"cat":"restaurant","vegan":1,"tea":0,"cuisine":"italian","addr":"1370 York Avenue","web":"https://www.finestrarestaurant.com/","tel":"+1 212-717-8595","hours":"12:00-21:00"},{"id":"n6672519068","name":"Kasbah Bakery","lat":40.68332,"lng":-74.003365,"cat":"cafe","vegan":1,"tea":0,"cuisine":"pastry;sandwich;brunch","addr":"","web":"https://www.kasbahbakery.com/","tel":"+1-347-384-2370","hours":"Mo-Fr 07:00-17:00, Sa 07:00-15:00"},{"id":"n6689923799","name":"Bagels & Co.","lat":40.769261,"lng":-73.951755,"cat":"restaurant","vegan":1,"tea":0,"cuisine":"","addr":"1428 York Avenue","web":"https://bagelskosher.com/","tel":"+1 212-717-0505","hours":"Mo-Su 06:00-21:00; Fr 06:00-13:00; Sa off"},{"id":"n6709938306","name":"Familiars Vegan Coffee Shop","lat":40.686795,"lng":-73.923641,"cat":"cafe","vegan":1,"tea":0,"cuisine":"","addr":"94 Ralph Avenue","web":"https://www.familiarsbk.com/","tel":"+1-347-295-2574","hours":"08:00-15:00"},{"id":"n6710345510","name":"Happy Zoe Vegan Bakery","lat":40.724052,"lng":-73.949648,"cat":"restaurant","vegan":2,"tea":0,"cuisine":"","addr":"102 Nassau Avenue","web":"https://www.happyzoeveganbakery.com/","tel":"+1-718-785-9639","hours":"Mo-Sa 10:00-19:00; Su 11:00-17:00"},{"id":"n6710934177","name":"Holy Pita","lat":40.697552,"lng":-73.971915,"cat":"restaurant","vegan":1,"tea":0,"cuisine":"mediterranean","addr":"10 Clermont Avenue","web":"https://holypita.com","tel":"+1-212-777-2005","hours":"Mo-Sa 11:00-21:00"},{"id":"n6713109639","name":"Amituofo Vegan Cuisine","lat":40.703733,"lng":-73.933064,"cat":"restaurant","vegan":2,"tea":0,"cuisine":"asian","addr":"19 Bogart Street","web":"https://www.amituofovegan.com","tel":"+1-718-366-2288","hours":"Mo-Su 11:30-10:30","desc":"Vegan eatery offering plant-based versions of Pan-Asian classics in a bright, airy interior."},{"id":"n6724357509","name":"Greedi Kitchen","lat":40.683729,"lng":-73.923056,"cat":"restaurant","vegan":1,"tea":0,"cuisine":"","addr":"180 Ralph Avenue","web":"https://greedivegan.com","tel":"+1-347-533-8045","hours":"Tu-Th 12:00-21:00; Fr 12:00-22:00; Sa-Su 10:00-19:00"},{"id":"n6742724900","name":"Wild Ginger","lat":40.785575,"lng":-73.727461,"cat":"restaurant","vegan":1,"tea":0,"cuisine":"asian","addr":""},{"id":"n6778205744","name":"Apollo Bagels","lat":40.74094,"lng":-74.030035,"cat":"restaurant","vegan":1,"tea":0,"cuisine":"bagel;burger","addr":""},{"id":"n6788670543","name":"Tacoria","lat":40.739129,"lng":-74.030595,"cat":"restaurant","vegan":1,"tea":0,"cuisine":"mexican","addr":"","hours":"Su-Th 11:30-21:00; Fr,Sa 11:30-22:00"},{"id":"n6833338806","name":"Luanne's Wild Ginger","lat":40.675387,"lng":-73.956423,"cat":"restaurant","vegan":1,"tea":0,"cuisine":"asian","addr":"","web":"http://www.luanneswildgingernyc.com/","tel":"+1-718-928-7668"},{"id":"n6833338807","name":"Diwan Grill","lat":40.675341,"lng":-73.956441,"cat":"restaurant","vegan":1,"tea":0,"cuisine":"indian","addr":"","web":"https://www.diwangrillnyc.com","tel":"+1-718-230-7852","hours":"Mo-Su 11:30-15:00,17:00-22:30"},{"id":"n6886916465","name":"Poke City","lat":40.691332,"lng":-73.991034,"cat":"restaurant","vegan":1,"tea":0,"cuisine":"poke;salad","addr":"","web":"https://pokecitybrooklyn.com","tel":"+1-917-359-5308","hours":"Mo-Su 10:30-20:00"},{"id":"n6896325800","name":"Juice Press","lat":40.692492,"lng":-73.991427,"cat":"restaurant","vegan":1,"tea":0,"cuisine":"juice;health_food","addr":"194 Joralemon Street","web":"https://order.juicepress.com/eqx-brooklyn-heights/menu","hours":"Mo-Th 06:30-09:00; Fr 06:30-20:00; Sa-Su 08:00-19:00"},{"id":"n6900833957","name":"Beets and Carrots","lat":40.614062,"lng":-74.034889,"cat":"cafe","vegan":1,"tea":0,"cuisine":"american","addr":"9905 3rd Avenue","hours":"Mo-Th 11:00-15:00,17:00-22:00; Fr-Sa 11:00-22:00"},{"id":"n6903042182","name":"Spring Cafe","lat":40.717885,"lng":-74.000247,"cat":"cafe","vegan":2,"tea":0,"cuisine":"asian;burger","addr":"153 Centre Street","web":"https://springcafenyc.com/","tel":"+1 212-226-9669","hours":"Mo-Su 10:30-19:30"},{"id":"n6910758321","name":"Ahimsa","lat":40.728392,"lng":-73.983236,"cat":"restaurant","vegan":1,"tea":0,"cuisine":"indian","addr":"","web":"https://ahimsagarden.com","tel":"+1-212-533-7290","hours":"Mo-Th 12:00-22:00; Fr-Sa 12:00-23:00; Su 12:00-22:00"},{"id":"n6941252618","name":"Bambu","lat":40.71696,"lng":-73.994701,"cat":"cafe","vegan":1,"tea":2,"cuisine":"vietnamese;bubble_tea","addr":"124 Hester Street","web":"https://www.drinkbambu.com/location-info/location=new-york-city","tel":"+1 347-236-3185","hours":"Mo-Su 11:00-18:00"},{"id":"n6955273589","name":"Van Leeuwen Ice Cream","lat":40.707629,"lng":-74.00224,"cat":"restaurant","vegan":1,"tea":0,"cuisine":"","addr":"224 Front Street","web":"https://vanleeuwenicecream.com/location/seaport/","tel":"+1-917-261-6376","hours":"Mo-Su 13:00-23:00"},