{"attribution":"Data © OpenStreetMap contributors, ODbL","fetched":"2026-07-02","venues":[{"id":"n380044344","name":"Pedro's","lat":40.70253,"lng":-73.986552,"cat":"restaurant","vegan":1,"tea":false,"cuisine":"mexican","addr":"73 Jay Street"},{"id":"n419362699","name":"The Musket Room","lat":40.723919,"lng":-73.993781,"cat":"restaurant","vegan":1,"tea":false,"cuisine":"continental;eclectic","addr":""},{"id":"n419364720","name":"Van Leeuwen","lat":40.686704,"lng":-73.990147,"cat":"restaurant","vegan":1,"tea":false,"cuisine":"","addr":"81 Bergen Street"},{"id":"n475485737","name":"Van Leeuwen Ice Cream","lat":40.703183,"lng":-73.994707,"cat":"restaurant","vegan":1,"tea":false,"cuisine":"","addr":"1 Water Street"},{"id":"n566313758","name":"The Inwood Farm","lat":40.872799,"lng":-73.918421,"cat":"restaurant","vegan":1,"tea":false,"cuisine":"american","addr":"600 West 218th Street"},{"id":"n746176794","name":"Starbucks","lat":40.793842,"lng":-73.97277,"cat":"cafe","vegan":1,"tea":false,"cuisine":"coffee_shop","addr":"2525 Broadway"},{"id":"n870317225","name":"Starbucks","lat":40.759305,"lng":-73.952923,"cat":"cafe","vegan":1,"tea":false,"cuisine":"coffee_shop","addr":"455 Main Street"},{"id":"n883181314","name":"Starbucks","lat":40.7491,"lng":-73.983903,"cat":"cafe","vegan":1,"tea":false,"cuisine":"coffee_shop","addr":"373 5th Avenue"},{"id":"n883234965","name":"Chipotle","lat":40.748429,"lng":-73.985033,"cat":"restaurant","vegan":1,"tea":false,"cuisine":"mexican","addr":"350 5th Avenue"},{"id":"n886702490","name":"Starbucks","lat":40.727207,"lng":-73.995481,"cat":"cafe","vegan":1,"tea":false,"cuisine":"coffee_shop","addr":"665 Broadway"},{"id":"n889472802","name":"Starbucks","lat":40.715522,"lng":-74.008983,"cat":"cafe","vegan":1,"tea":false,"cuisine":"coffee_shop","addr":"125 Chambers Street"},{"id":"n910822719","name":"Chipotle","lat":40.706722,"lng":-74.00698,"cat":"restaurant","vegan":1,"tea":false,"cuisine":"mexican","addr":"100 Maiden Lane"},{"id":"n999526102","name":"Whole Foods Market","lat":40.768396,"lng":-73.982675,"cat":"restaurant","vegan":1,"tea":false,"cuisine":"","addr":"10 Columbus Circle"},{"id":"n1116977313","name":"DSK Brooklyn","lat":40.685756,"lng":-73.973505,"cat":"restaurant","vegan":1,"tea":false,"cuisine":"german","addr":"710 Fulton Street"},{"id":"n1297282199","name":"Chipotle","lat":40.745354,"lng":-73.982823,"cat":"restaurant","vegan":1,"tea":false,"cuisine":"mexican","addr":"464 Park Avenue South"},{"id":"n1383909209","name":"Chipotle","lat":40.766001,"lng":-73.982882,"cat":"restaurant","vegan":1,"tea":false,"cuisine":"mexican","addr":"235 West 56th Street"},{"id":"n1383935410","name":"Starbucks","lat":40.767511,"lng":-73.982943,"cat":"cafe","vegan":1,"tea":false,"cuisine":"coffee_shop","addr":"4 Columbus Circle"},{"id":"n1383942697","name":"Starbucks","lat":40.767634,"lng":-73.981287,"cat":"cafe","vegan":1,"tea":false,"cuisine":"coffee_shop","addr":"240 Central Park South"},{"id":"n1383954690","name":"Starbucks","lat":40.76495,"lng":-73.979109,"cat":"cafe","vegan":1,"tea":false,"cuisine":"coffee_shop","addr":""},{"id":"n1383955759","name":"Carnegie Diner & Cafe","lat":40.765737,"lng":-73.980116,"cat":"restaurant","vegan":1,"tea":false,"cuisine":"burger;sandwich;coffee_shop;ice_cream;american;pancake","addr":"205 West 57th Street"},{"id":"n1584932953","name":"Starbucks","lat":40.743687,"lng":-73.976931,"cat":"cafe","vegan":1,"tea":false,"cuisine":"coffee_shop","addr":"585 2nd Avenue"},{"id":"n1666603088","name":"Starbucks","lat":40.80593,"lng":-73.954529,"cat":"cafe","vegan":1,"tea":false,"cuisine":"coffee_shop","addr":"2195 Frederick Douglass Boulevard"},{"id":"n1748991484","name":"Chu Ros Thai","lat":40.789254,"lng":-73.948631,"cat":"restaurant","vegan":1,"tea":false,"cuisine":"thai","addr":"1590 Lexington Avenue"},{"id":"n1748991489","name":"Burritos y Mas","lat":40.788786,"lng":-73.948637,"cat":"restaurant","vegan":1,"tea":false,"cuisine":"","addr":"1571 Lexington Avenue"},{"id":"n1810737611","name":"Starbucks","lat":40.795232,"lng":-73.965539,"cat":"cafe","vegan":1,"tea":false,"cuisine":"coffee_shop","addr":"805 Columbus Avenue"},{"id":"n1825739845","name":"Starbucks","lat":40.739372,"lng":-74.002526,"cat":"cafe","vegan":1,"tea":false,"cuisine":"coffee_shop","addr":"122 Greenwich Avenue"},{"id":"n1899033653","name":"Starbucks","lat":40.758016,"lng":-73.988999,"cat":"cafe","vegan":1,"tea":false,"cuisine":"coffee_shop","addr":""},{"id":"n1906721425","name":"Burrito Box","lat":40.768276,"lng":-73.985687,"cat":"restaurant","vegan":1,"tea":false,"cuisine":"mexican","addr":"885 9th Avenue"},{"id":"n1917136131","name":"Starbucks","lat":40.719348,"lng":-73.989998,"cat":"cafe","vegan":1,"tea":false,"cuisine":"coffee_shop","addr":"80 Delancey Street"},{"id":"n1934522990","name":"Chipotle","lat":40.714983,"lng":-74.011137,"cat":"restaurant","vegan":1,"tea":false,"cuisine":"mexican","addr":"275 Greenwich Street"},{"id":"n1950344608","name":"Starbucks","lat":40.813095,"lng":-73.984347,"cat":"cafe","vegan":1,"tea":false,"cuisine":"coffee_shop","addr":"457 River Road"},{"id":"n1952071262","name":"Starbucks","lat":40.856133,"lng":-73.965412,"cat":"cafe","vegan":1,"tea":false,"cuisine":"coffee_shop","addr":"2160 Lemoine Avenue"},{"id":"n1994680562","name":"Starbucks","lat":40.784927,"lng":-73.978801,"cat":"cafe","vegan":1,"tea":false,"cuisine":"coffee_shop","addr":"2252 Broadway"},{"id":"n2017643713","name":"Vinnies Pizzeria","lat":40.718871,"lng":-73.956793,"cat":"restaurant","vegan":1,"tea":false,"cuisine":"pizza","addr":"148 Bedford Avenue"},{"id":"n2034011016","name":"Starbucks","lat":40.704382,"lng":-74.013047,"cat":"cafe","vegan":1,"tea":false,"cuisine":"coffee_shop","addr":"2 Broadway"},{"id":"n2041169444","name":"Starbucks","lat":40.873542,"lng":-73.908492,"cat":"cafe","vegan":1,"tea":false,"cuisine":"coffee_shop","addr":"40 West 225th Street"},{"id":"n2045635529","name":"Starbucks","lat":40.740519,"lng":-73.984262,"cat":"cafe","vegan":1,"tea":false,"cuisine":"coffee_shop","addr":""},{"id":"n2047269475","name":"Starbucks","lat":40.710192,"lng":-74.00797,"cat":"cafe","vegan":1,"tea":false,"cuisine":"coffee_shop","addr":"130 Fulton Street"},{"id":"n2065455029","name":"Starbucks","lat":40.722517,"lng":-73.997904,"cat":"cafe","vegan":1,"tea":false,"cuisine":"coffee_shop","addr":"72 Spring Street"},{"id":"n2139124594","name":"Luanne's","lat":40.68961,"lng":-73.969829,"cat":"restaurant","vegan":2,"tea":false,"cuisine":"asian","addr":""},{"id":"n2178743034","name":"Starbucks","lat":40.757236,"lng":-73.989117,"cat":"cafe","vegan":1,"tea":false,"cuisine":"coffee_shop","addr":"625 Eighth Avenue"},{"id":"n2183010472","name":"Springbone Kitchen","lat":40.703714,"lng":-74.010478,"cat":"cafe","vegan":1,"tea":false,"cuisine":"health_food","addr":"74 Pearl Street"},{"id":"n2183010488","name":"Starbucks","lat":40.705173,"lng":-74.011298,"cat":"cafe","vegan":1,"tea":false,"cuisine":"coffee_shop","addr":"55 Broad Street"},{"id":"n2186614190","name":"Starbucks","lat":40.704607,"lng":-74.009116,"cat":"cafe","vegan":1,"tea":false,"cuisine":"coffee_shop","addr":"110 Pearl Street"},{"id":"n2269643036","name":"Starbucks","lat":40.849428,"lng":-73.970783,"cat":"cafe","vegan":1,"tea":false,"cuisine":"coffee_shop","addr":"1605 Lemoine Avenue"},{"id":"n2279508475","name":"Starbucks","lat":40.730832,"lng":-73.983183,"cat":"cafe","vegan":1,"tea":false,"cuisine":"coffee_shop","addr":"219 1st Avenue"},{"id":"n2310498477","name":"Starbucks","lat":40.771384,"lng":-73.982472,"cat":"cafe","vegan":1,"tea":false,"cuisine":"coffee_shop","addr":"1889 Broadway"},{"id":"n2357937257","name":"Starbucks","lat":40.776143,"lng":-73.950207,"cat":"cafe","vegan":1,"tea":false,"cuisine":"coffee_shop","addr":"1631 1st Avenue"},{"id":"n2357937268","name":"Starbucks","lat":40.785947,"lng":-73.950703,"cat":"cafe","vegan":1,"tea":false,"cuisine":"coffee_shop","addr":"1491 Lexington Avenue"},{"id":"n2358048512","name":"Starbucks","lat":40.733212,"lng":-74.002686,"cat":"cafe","vegan":1,"tea":false,"cuisine":"coffee_shop","addr":"74 Grove Street"},{"id":"n2377128180","name":"Starbucks","lat":40.741105,"lng":-74.001261,"cat":"cafe","vegan":1,"tea":false,"cuisine":"coffee_shop","addr":"124 8th Avenue"},{"id":"n2377128182","name":"Starbucks","lat":40.745188,"lng":-73.998842,"cat":"cafe","vegan":1,"tea":false,"cuisine":"coffee_shop","addr":"300 West 23rd Street"},{"id":"n2384821772","name":"The Donut Pub","lat":40.738845,"lng":-73.999814,"cat":"cafe","vegan":1,"tea":false,"cuisine":"donut","addr":"203 West 14th Street"},{"id":"n2387017165","name":"Awash Ethiopian Restaurant","lat":40.685754,"lng":-73.994442,"cat":"restaurant","vegan":1,"tea":false,"cuisine":"ethiopian","addr":"242 Court Street"},{"id":"n2407445501","name":"Pizza Suprema","lat":40.750135,"lng":-73.995213,"cat":"restaurant","vegan":1,"tea":false,"cuisine":"pizza","addr":"413 8th Avenue"},{"id":"n2423176814","name":"Starbucks","lat":40.769407,"lng":-73.984893,"cat":"cafe","vegan":1,"tea":false,"cuisine":"coffee_shop","addr":"2 Columbus Avenue"},{"id":"n2477147723","name":"Guru Health Foods","lat":40.709373,"lng":-73.805014,"cat":"restaurant","vegan":1,"tea":false,"cuisine":"","addr":"86-02 Parsons Boulevard"},{"id":"n2494064642","name":"Van Leeuwen Ice Cream","lat":40.727697,"lng":-73.987713,"cat":"restaurant","vegan":1,"tea":false,"cuisine":"","addr":""},{"id":"n2494066985","name":"Salter House","lat":40.690941,"lng":-73.996294,"cat":"cafe","vegan":1,"tea":false,"cuisine":"coffee_shop","addr":"119 Atlantic Avenue"},{"id":"n2494088708","name":"Brooklyn Pizza Crew","lat":40.672766,"lng":-73.950386,"cat":"restaurant","vegan":1,"tea":false,"cuisine":"pizza","addr":"758B Nostrand Avenue"},{"id":"n2494109310","name":"Longevity Natural Gourmet Market","lat":40.673829,"lng":-73.96319,"cat":"restaurant","vegan":1,"tea":false,"cuisine":"breakfast;sandwich","addr":"810 Washington Avenue"},{"id":"n2494226429","name":"Brooklyn Burgers & Beer","lat":40.674449,"lng":-73.981724,"cat":"restaurant","vegan":1,"tea":false,"cuisine":"burger","addr":"259 5th Avenue"},{"id":"n2494373018","name":"Sixteen Mill Bakeshop","lat":40.678365,"lng":-73.985853,"cat":"restaurant","vegan":2,"tea":false,"cuisine":"","addr":"552 Union Street"},{"id":"n2522802841","name":"Tap NYC","lat":40.775274,"lng":-73.909228,"cat":"restaurant","vegan":1,"tea":false,"cuisine":"brazilian;health_food","addr":"33-07 Ditmars Boulevard"},{"id":"n2523619708","name":"Next Stop Vegan","lat":40.691228,"lng":-73.990689,"cat":"restaurant","vegan":2,"tea":false,"cuisine":"dominican","addr":"88 Livingston Street"},{"id":"n2547054885","name":"The Bean","lat":40.725605,"lng":-73.98962,"cat":"cafe","vegan":1,"tea":false,"cuisine":"coffee_shop","addr":""},{"id":"n2547121461","name":"Hags","lat":40.728974,"lng":-73.984523,"cat":"restaurant","vegan":1,"tea":false,"cuisine":"eclectic","addr":"163 1st Avenue"},{"id":"n2547243346","name":"Van Leeuwen Ice Cream","lat":40.721975,"lng":-73.996093,"cat":"restaurant","vegan":1,"tea":false,"cuisine":"","addr":"45 Spring Street"},{"id":"n2547246907","name":"Nom Wah Nolita","lat":40.72037,"lng":-73.994582,"cat":"restaurant","vegan":1,"tea":false,"cuisine":"chinese","addr":"10 Kenmare Street"},{"id":"n2547630803","name":"Fat Boy's Vegan Burgers","lat":40.679009,"lng":-73.949501,"cat":"restaurant","vegan":1,"tea":false,"cuisine":"burger","addr":"537 Nostrand Avenue"},{"id":"n2549953088","name":"The Flatiron Room","lat":40.74452,"lng":-73.990483,"cat":"restaurant","vegan":1,"tea":false,"cuisine":"american;continental","addr":"37 West 26th Street"},{"id":"n2549992943","name":"Giardini Pizza","lat":40.679576,"lng":-73.995161,"cat":"restaurant","vegan":1,"tea":false,"cuisine":"pizza","addr":"363 Smith Street"},{"id":"n2550012191","name":"Bar Moga","lat":40.727761,"lng":-74.00115,"cat":"restaurant","vegan":1,"tea":false,"cuisine":"japanese;cocktails","addr":"128 West Houston Street"},{"id":"n2550054027","name":"Bklyn Cream","lat":40.681068,"lng":-73.975689,"cat":"restaurant","vegan":1,"tea":false,"cuisine":"","addr":"459 Bergen Street"},{"id":"n2550057122","name":"Wild","lat":40.678267,"lng":-73.979359,"cat":"restaurant","vegan":1,"tea":false,"cuisine":"american;pizza;brunch","addr":"148 5th Avenue"},{"id":"n2550059686","name":"La Pizza Italia","lat":40.682024,"lng":-73.976823,"cat":"restaurant","vegan":1,"tea":false,"cuisine":"pizza","addr":"32 5th Avenue"},{"id":"n2550074062","name":"Santo Brúklin","lat":40.675098,"lng":-73.999562,"cat":"restaurant","vegan":1,"tea":false,"cuisine":"brazilian","addr":"548 Court Street"},{"id":"n2550089898","name":"Emack & Bolio's","lat":40.659342,"lng":-73.981447,"cat":"restaurant","vegan":1,"tea":false,"cuisine":"","addr":""},{"id":"n2550697365","name":"Cooked Klean","lat":40.72923,"lng":-73.780519,"cat":"restaurant","vegan":1,"tea":false,"cuisine":"salad","addr":"188-16 Union Turnpike"},{"id":"n2552691851","name":"Dave's Garden","lat":40.632091,"lng":-74.027708,"cat":"restaurant","vegan":1,"tea":false,"cuisine":"chinese","addr":"7404 3rd Avenue"},{"id":"n2552693318","name":"Mint Bay","lat":40.631225,"lng":-74.02805,"cat":"restaurant","vegan":1,"tea":false,"cuisine":"indian","addr":""},{"id":"n2552890763","name":"Amitabha Vegan Resaurant","lat":40.73293,"lng":-73.794566,"cat":"restaurant","vegan":2,"tea":false,"cuisine":"chinese","addr":"68-24 Fresh Meadow Lane"},{"id":"n2552912656","name":"Blaze Pizza","lat":40.740382,"lng":-73.786974,"cat":"restaurant","vegan":1,"tea":false,"cuisine":"pizza","addr":"187-12 Horace Harding Expressway"},{"id":"n2552912763","name":"Qdoba","lat":40.73949,"lng":-73.786302,"cat":"restaurant","vegan":1,"tea":false,"cuisine":"mexican","addr":"61-40 188th Street"},{"id":"n2552912764","name":"Taim Mediterranean Kitchen","lat":40.739399,"lng":-73.786292,"cat":"restaurant","vegan":1,"tea":false,"cuisine":"mediterranean","addr":"61-42 188th Street"},{"id":"n2555123793","name":"Jisu Vegetarian","lat":40.716066,"lng":-73.995308,"cat":"restaurant","vegan":1,"tea":false,"cuisine":"chinese","addr":"125 Canal Street"},{"id":"n2561983219","name":"Jaew Thai Cuisine","lat":40.644119,"lng":-73.976012,"cat":"restaurant","vegan":1,"tea":false,"cuisine":"thai","addr":"416 Church Avenue"},{"id":"n2562136780","name":"Zatar","lat":40.663785,"lng":-73.980669,"cat":"cafe","vegan":1,"tea":false,"cuisine":"middle_eastern","addr":"1201 8th Avenue"},{"id":"n2564588997","name":"Tikal Cafe","lat":40.690969,"lng":-73.904814,"cat":"cafe","vegan":1,"tea":false,"cuisine":"coffee_shop","addr":"1312 Decatur Street"},{"id":"n2565391706","name":"Milk Bar","lat":40.675623,"lng":-73.978045,"cat":"cafe","vegan":1,"tea":false,"cuisine":"breakfast;sandwich;coffee_shop","addr":"204 6th Avenue"},{"id":"n2567092056","name":"Moss Vegan Bistro","lat":40.668189,"lng":-73.959178,"cat":"restaurant","vegan":2,"tea":false,"cuisine":"","addr":"943 Carroll Street"},{"id":"n2567528714","name":"Soda Club","lat":40.726691,"lng":-73.979895,"cat":"restaurant","vegan":2,"tea":false,"cuisine":"wine;pasta","addr":"155 Avenue B"},{"id":"n2568120017","name":"Clementine Cafe & Bakery","lat":40.687547,"lng":-73.959581,"cat":"cafe","vegan":1,"tea":false,"cuisine":"sandwich;coffee_shop;ice_cream","addr":"395 Classon Avenue"},{"id":"n2568197213","name":"Lakou","lat":40.672011,"lng":-73.930668,"cat":"cafe","vegan":1,"tea":false,"cuisine":"haitian","addr":""},{"id":"n2568554173","name":"Maman","lat":40.703157,"lng":-73.991314,"cat":"cafe","vegan":1,"tea":false,"cuisine":"french","addr":""},{"id":"n2568643693","name":"Hartbreakers","lat":40.701704,"lng":-73.922809,"cat":"restaurant","vegan":2,"tea":false,"cuisine":"sandwich","addr":"820 Hart Street"},{"id":"n2568698397","name":"Bklyn Cake Studio","lat":40.663615,"lng":-73.984117,"cat":"restaurant","vegan":1,"tea":false,"cuisine":"","addr":""},{"id":"n2568752281","name":"La Casa del Panuozzo","lat":40.667678,"lng":-73.980741,"cat":"restaurant","vegan":1,"tea":false,"cuisine":"pizza","addr":"301 7th Avenue"},{"id":"n2568936223","name":"Pasha Pizza","lat":40.677596,"lng":-73.958933,"cat":"restaurant","vegan":1,"tea":false,"cuisine":"pizza;middle_eastern","addr":""},{"id":"n2572920326","name":"Juici Patties","lat":40.688063,"lng":-73.980122,"cat":"restaurant","vegan":1,"tea":false,"cuisine":"jamaican","addr":"19 Flatbush Avenue"},{"id":"n2572981730","name":"Slutty Vegan","lat":40.686104,"lng":-73.974261,"cat":"restaurant","vegan":2,"tea":false,"cuisine":"","addr":"690 Fulton Street"},{"id":"n2592129994","name":"Miriam","lat":40.780142,"lng":-73.980766,"cat":"restaurant","vegan":1,"tea":false,"cuisine":"middle_eastern","addr":"300 Amsterdam Avenue"},{"id":"n2602395130","name":"No. 1 Chinese","lat":40.767379,"lng":-74.029083,"cat":"restaurant","vegan":1,"tea":false,"cuisine":"chinese","addr":"2504 Palisade Avenue"},{"id":"n2603955335","name":"Chipotle","lat":40.841475,"lng":-73.939853,"cat":"restaurant","vegan":1,"tea":false,"cuisine":"mexican","addr":"4009 Broadway"},{"id":"n2629277990","name":"Chipotle","lat":40.763606,"lng":-73.977943,"cat":"restaurant","vegan":1,"tea":false,"cuisine":"mexican","addr":"1379 6th Avenue"},{"id":"n2664396742","name":"Mexico Authentico","lat":40.669398,"lng":-73.982987,"cat":"restaurant","vegan":1,"tea":false,"cuisine":"mexican","addr":"396 6th Avenue"},{"id":"n2688264646","name":"Starbucks","lat":40.759028,"lng":-73.992603,"cat":"cafe","vegan":1,"tea":false,"cuisine":"coffee_shop","addr":"684 9th Avenue"},{"id":"n2701690273","name":"Dough","lat":40.677014,"lng":-73.969308,"cat":"restaurant","vegan":1,"tea":false,"cuisine":"donut","addr":"646 Vanderbilt Avenue"},{"id":"n2702857193","name":"Som Bo","lat":40.741848,"lng":-74.001242,"cat":"restaurant","vegan":1,"tea":false,"cuisine":"asian","addr":"143 8th Avenue"},{"id":"n2706023195","name":"Domo Taco","lat":40.673578,"lng":-73.956762,"cat":"restaurant","vegan":1,"tea":false,"cuisine":"asian;mexican","addr":"733 Franklin Avenue"},{"id":"n2709389149","name":"Wolfnights","lat":40.745167,"lng":-73.978309,"cat":"restaurant","vegan":1,"tea":false,"cuisine":"sandwich;salad","addr":"489 3rd Avenue"},{"id":"n2713490449","name":"Nûrish","lat":40.678345,"lng":-73.963695,"cat":"cafe","vegan":1,"tea":false,"cuisine":"health_food;breakfast;coffee_shop","addr":"637 Washington Avenue"},{"id":"n2713495198","name":"Citrico","lat":40.676849,"lng":-73.963418,"cat":"restaurant","vegan":1,"tea":false,"cuisine":"mexican","addr":"681 Washington Avenue"},{"id":"n2718050718","name":"Loco Coco","lat":40.765065,"lng":-73.965936,"cat":"restaurant","vegan":2,"tea":false,"cuisine":"smoothie","addr":"835 Lexington Avenue"},{"id":"n2723493279","name":"Two Boots Pizza","lat":40.764543,"lng":-73.961697,"cat":"restaurant","vegan":1,"tea":false,"cuisine":"pizza","addr":"1243 2nd Avenue"},{"id":"n2723664157","name":"LENOXTHAI","lat":40.763861,"lng":-73.959099,"cat":"restaurant","vegan":1,"tea":false,"cuisine":"thai","addr":"1219 1st Avenue"},{"id":"n2723743084","name":"Chamoun's Way","lat":40.764508,"lng":-73.958622,"cat":"restaurant","vegan":1,"tea":false,"cuisine":"lebanese","addr":"1237 1st Avenue"},{"id":"n2724057631","name":"Horn's Hook Tavern","lat":40.77479,"lng":-73.951143,"cat":"restaurant","vegan":1,"tea":false,"cuisine":"american","addr":"1589 1st Avenue"},{"id":"n2724232183","name":"fresh&co","lat":40.778774,"lng":-73.95629,"cat":"restaurant","vegan":1,"tea":false,"cuisine":"health_food;american","addr":"1260 Lexington Avenue"},{"id":"n2745558099","name":"Uno Pizzeria & Grill","lat":40.783217,"lng":-73.974803,"cat":"restaurant","vegan":1,"tea":false,"cuisine":"pizza","addr":"432 Columbus Avenue"},{"id":"n2758287019","name":"Starbucks","lat":40.78676,"lng":-73.972214,"cat":"cafe","vegan":1,"tea":false,"cuisine":"coffee_shop","addr":"540 Columbus Avenue"},{"id":"n2758640952","name":"Peacefood Cafe","lat":40.785278,"lng":-73.977018,"cat":"restaurant","vegan":2,"tea":false,"cuisine":"","addr":"460 Amsterdam Avenue"},{"id":"n2761578489","name":"Longwood Fish Market","lat":40.798014,"lng":-73.963529,"cat":"restaurant","vegan":1,"tea":false,"cuisine":"seafood","addr":"903 Columbus Avenue"},{"id":"n2761677767","name":"Roti Roll (Bombay Frankie)","lat":40.802591,"lng":-73.96437,"cat":"restaurant","vegan":1,"tea":false,"cuisine":"indian","addr":"994 Amsterdam Avenue"},{"id":"n2768459581","name":"Jin Ramen","lat":40.815394,"lng":-73.95885,"cat":"restaurant","vegan":1,"tea":false,"cuisine":"","addr":"3183 Broadway"},{"id":"n2774078095","name":"Rua Thai","lat":40.684712,"lng":-73.991981,"cat":"restaurant","vegan":1,"tea":false,"cuisine":"thai","addr":"204 Smith Street"},{"id":"n2796448528","name":"Blue Bottle Coffee","lat":40.806297,"lng":-73.965491,"cat":"cafe","vegan":1,"tea":false,"cuisine":"coffee_shop","addr":"2901 Broadway"},{"id":"n2797261820","name":"Poción Lounge","lat":40.847528,"lng":-73.938419,"cat":"restaurant","vegan":2,"tea":false,"cuisine":"dominican","addr":"704 West 177th Street"},{"id":"n2797659824","name":"Vegan Quick Bites by Next Stop Vegan","lat":40.855966,"lng":-73.928642,"cat":"restaurant","vegan":1,"tea":false,"cuisine":"","addr":"1636 Saint Nicholas Avenue"},{"id":"n2797789439","name":"Yummy Thai","lat":40.868076,"lng":-73.920497,"cat":"restaurant","vegan":1,"tea":false,"cuisine":"thai","addr":"4959 Broadway"},{"id":"n2821335221","name":"Chipotle","lat":40.714498,"lng":-74.006276,"cat":"restaurant","vegan":1,"tea":false,"cuisine":"mexican","addr":"281 Broadway"},{"id":"n2825288972","name":"Buddha Bodai","lat":40.713865,"lng":-73.998798,"cat":"restaurant","vegan":1,"tea":false,"cuisine":"chinese","addr":"5 Mott Street"},{"id":"n2827518409","name":"Third Time's the Charm","lat":40.679184,"lng":-74.010539,"cat":"restaurant","vegan":1,"tea":false,"cuisine":"pizza","addr":""},{"id":"n2834844701","name":"Le Pain Quotidien","lat":40.772996,"lng":-73.974249,"cat":"cafe","vegan":1,"tea":false,"cuisine":"coffee_shop","addr":""},{"id":"n2838706928","name":"Muz Muz CBD Lounge","lat":40.71253,"lng":-73.943887,"cat":"cafe","vegan":1,"tea":false,"cuisine":"snack","addr":"296 Graham Avenue"},{"id":"n2838720763","name":"Haymaker's Corner Store","lat":40.712659,"lng":-73.947619,"cat":"restaurant","vegan":1,"tea":false,"cuisine":"","addr":"176 Ainslie Street"},{"id":"n2839686842","name":"Nitehawk Cinema","lat":40.716063,"lng":-73.962444,"cat":"activity","vegan":1,"tea":false,"cuisine":"american","addr":"136 Metropolitan Avenue"},{"id":"n2839801731","name":"Rose Wolf Coffee","lat":40.714749,"lng":-73.940057,"cat":"cafe","vegan":1,"tea":false,"cuisine":"coffee_shop","addr":"867 Metropolitan Avenue"},{"id":"n2844999924","name":"Cardamom","lat":40.743893,"lng":-73.921232,"cat":"restaurant","vegan":1,"tea":false,"cuisine":"indian","addr":"43-45 43rd Street"},{"id":"n2869376565","name":"Kam's Kitchen","lat":40.695952,"lng":-73.742293,"cat":"restaurant","vegan":1,"tea":false,"cuisine":"chinese","addr":"217-09 Linden Boulevard"},{"id":"n2985673609","name":"Xi'an Famous Foods","lat":40.74018,"lng":-74.001972,"cat":"restaurant","vegan":1,"tea":false,"cuisine":"chinese;noodle","addr":"96 8th Avenue"},{"id":"n3061926346","name":"Dun-Well Doughnuts","lat":40.707457,"lng":-73.940248,"cat":"cafe","vegan":1,"tea":false,"cuisine":"donut","addr":"222 Montrose Avenue"},{"id":"n3064399843","name":"Divya’s Kitchen","lat":40.723715,"lng":-73.988362,"cat":"restaurant","vegan":1,"tea":false,"cuisine":"indian","addr":"25 1st Avenue"},{"id":"n3064399844","name":"Govinda's Kadamba Kafe","lat":40.687621,"lng":-73.982183,"cat":"restaurant","vegan":1,"tea":false,"cuisine":"","addr":"305 Schermerhorn Street"},{"id":"n3071111733","name":"Chipotle","lat":40.734172,"lng":-73.988878,"cat":"restaurant","vegan":1,"tea":false,"cuisine":"mexican","addr":"117 East 14th Street"},{"id":"n3077594919","name":"Chipotle","lat":40.689214,"lng":-73.992763,"cat":"restaurant","vegan":1,"tea":false,"cuisine":"mexican","addr":"140 Court Street"},{"id":"n3190240012","name":"Chipotle","lat":40.709698,"lng":-74.006443,"cat":"restaurant","vegan":1,"tea":false,"cuisine":"mexican","addr":"111 Fulton Street"},{"id":"n3248774671","name":"Starbucks","lat":40.781025,"lng":-73.981008,"cat":"cafe","vegan":1,"tea":false,"cuisine":"coffee_shop","addr":"2138 Broadway"},{"id":"n3340747647","name":"Chipotle","lat":40.746033,"lng":-73.993994,"cat":"restaurant","vegan":1,"tea":false,"cuisine":"mexican","addr":"283 7th Avenue"},{"id":"n3446947494","name":"Chipotle","lat":40.7626,"lng":-73.966082,"cat":"restaurant","vegan":1,"tea":false,"cuisine":"mexican","addr":"1020 3rd Avenue"},{"id":"n3448719854","name":"India Palace","lat":40.761417,"lng":-73.96016,"cat":"restaurant","vegan":1,"tea":false,"cuisine":"indian","addr":"401 East 62nd Street"},{"id":"n3507260979","name":"Andrews NYC Diner","lat":40.751674,"lng":-73.989863,"cat":"restaurant","vegan":1,"tea":false,"cuisine":"american;diner","addr":"463 7th Avenue"},{"id":"n3507260980","name":"fresh&co","lat":40.748488,"lng":-73.992202,"cat":"restaurant","vegan":1,"tea":false,"cuisine":"","addr":"363 7th Avenue"},{"id":"n3569401894","name":"Tony's","lat":40.764373,"lng":-73.964292,"cat":"restaurant","vegan":1,"tea":false,"cuisine":"pizza","addr":"1081 3rd Avenue"},{"id":"n3584290132","name":"Gaia Masala & Burger","lat":40.761121,"lng":-73.923274,"cat":"restaurant","vegan":1,"tea":false,"cuisine":"indian;burger","addr":""},{"id":"n3608052274","name":"Lil' Frankies","lat":40.723585,"lng":-73.988455,"cat":"restaurant","vegan":1,"tea":false,"cuisine":"italian;pizza","addr":"19 1st Avenue"},{"id":"n3661038140","name":"Uptown Veg","lat":40.805516,"lng":-73.940543,"cat":"restaurant","vegan":1,"tea":false,"cuisine":"american","addr":"52 East 125th Street"},{"id":"n3677076425","name":"South Slope Restaurant & Bar","lat":40.667815,"lng":-73.987644,"cat":"restaurant","vegan":1,"tea":false,"cuisine":"diner","addr":""},{"id":"n3722347103","name":"Doughnut Plant","lat":40.68064,"lng":-73.974744,"cat":"cafe","vegan":1,"tea":false,"cuisine":"donut","addr":"245 Flatbush Avenue"},{"id":"n3831297082","name":"Chipotle","lat":40.744109,"lng":-73.975942,"cat":"restaurant","vegan":1,"tea":false,"cuisine":"mexican","addr":"604 2nd Avenue"},{"id":"n3832910158","name":"Vatan","lat":40.742351,"lng":-73.980346,"cat":"restaurant","vegan":1,"tea":false,"cuisine":"indian","addr":"409 3rd Avenue"},{"id":"n3865135159","name":"The Buttery Bar","lat":40.723132,"lng":-73.944627,"cat":"restaurant","vegan":1,"tea":false,"cuisine":"comfort_food;new_american;wine","addr":"152 Driggs Avenue"},{"id":"n3869566324","name":"Bodhi","lat":40.716357,"lng":-73.999174,"cat":"restaurant","vegan":2,"tea":false,"cuisine":"chinese","addr":"77 Mulberry Street"},{"id":"n3932353662","name":"Eleven Madison Park","lat":40.741598,"lng":-73.98719,"cat":"restaurant","vegan":2,"tea":false,"cuisine":"french;american","addr":"11 Madison Avenue"},{"id":"n3938479924","name":"Chloe","lat":40.729202,"lng":-74.001033,"cat":"restaurant","vegan":1,"tea":false,"cuisine":"burger;salad","addr":"185 Bleecker Street"},{"id":"n3953943884","name":"Baba's Pierogies","lat":40.67686,"lng":-73.986315,"cat":"cafe","vegan":1,"tea":false,"cuisine":"eastern_european","addr":""},{"id":"n3956967453","name":"Candle","lat":40.741837,"lng":-73.981223,"cat":"restaurant","vegan":2,"tea":false,"cuisine":"international","addr":""},{"id":"n3966939351","name":"Chipotle","lat":40.744261,"lng":-73.987868,"cat":"restaurant","vegan":1,"tea":false,"cuisine":"mexican","addr":"234 5th Avenue"},{"id":"n4015736092","name":"Jerrell's BETR BRGR","lat":40.723906,"lng":-74.004899,"cat":"restaurant","vegan":2,"tea":false,"cuisine":"burger","addr":"117 6th Avenue"},{"id":"n4058593771","name":"Maoz","lat":40.758094,"lng":-73.989383,"cat":"restaurant","vegan":1,"tea":false,"cuisine":"arab","addr":"683 8th Avenue"},{"id":"n4070145531","name":"Blossom- Chelsea","lat":40.745482,"lng":-74.002283,"cat":"restaurant","vegan":2,"tea":false,"cuisine":"","addr":"187 9th Avenue"},{"id":"n4085364218","name":"Beyond Sushi","lat":40.763312,"lng":-73.977203,"cat":"restaurant","vegan":1,"tea":false,"cuisine":"sushi;asian","addr":"62 West 56th Street"},{"id":"n4128896890","name":"Bareburger","lat":40.767172,"lng":-73.983518,"cat":"restaurant","vegan":1,"tea":false,"cuisine":"","addr":"313 West 57th Street"},{"id":"n4149450808","name":"ABA Turkish Restaurant","lat":40.767439,"lng":-73.983974,"cat":"restaurant","vegan":1,"tea":false,"cuisine":"turkish","addr":"325 West 57th Street"},{"id":"n4149654489","name":"MUD","lat":40.729044,"lng":-73.986646,"cat":"cafe","vegan":1,"tea":false,"cuisine":"brunch;coffee_shop","addr":"307 East 9th Street"},{"id":"n4151643713","name":"The Butcher's Daughter","lat":40.720716,"lng":-73.994785,"cat":"cafe","vegan":1,"tea":false,"cuisine":"","addr":"19 Kenmare Street"},{"id":"n4193991037","name":"Nature's Grill","lat":40.682324,"lng":-73.993307,"cat":"restaurant","vegan":1,"tea":false,"cuisine":"health_food;burger;juice","addr":""},{"id":"n4194106168","name":"Karazishi Botan","lat":40.683121,"lng":-73.992765,"cat":"restaurant","vegan":1,"tea":false,"cuisine":"japanese;pub;ramen","addr":""},{"id":"n4210170310","name":"Mr. Taka Ramen","lat":40.721278,"lng":-73.989028,"cat":"restaurant","vegan":1,"tea":false,"cuisine":"ramen;japanese","addr":"170 Allen Street"},{"id":"n4221091789","name":"Westville East","lat":40.728412,"lng":-73.982007,"cat":"restaurant","vegan":1,"tea":false,"cuisine":"american;salad;burger;fish","addr":"173 Avenue A"},{"id":"n4250503821","name":"Taïm","lat":40.666492,"lng":-73.981723,"cat":"restaurant","vegan":1,"tea":false,"cuisine":"mediterranean","addr":"341 5th Avenue"},{"id":"n4252969089","name":"Bangkok Degree","lat":40.674729,"lng":-73.97578,"cat":"restaurant","vegan":1,"tea":false,"cuisine":"thai","addr":"847A Union Street"},{"id":"n4255253129","name":"Chipotle","lat":40.72604,"lng":-73.996486,"cat":"restaurant","vegan":1,"tea":false,"cuisine":"mexican","addr":"625 Broadway"},{"id":"n4262776953","name":"Franchia","lat":40.747546,"lng":-73.98133,"cat":"restaurant","vegan":2,"tea":false,"cuisine":"asian","addr":"12 Park Avenue"},{"id":"n4284788108","name":"Le Botaniste","lat":40.765002,"lng":-73.965953,"cat":"restaurant","vegan":2,"tea":false,"cuisine":"international","addr":"833 Lexington Avenue"},{"id":"n4285496392","name":"Lily's Vegan Pantry","lat":40.718641,"lng":-73.99905,"cat":"restaurant","vegan":2,"tea":false,"cuisine":"","addr":"213 Hester Street"},{"id":"n4300313491","name":"Dirt Candy","lat":40.717878,"lng":-73.990789,"cat":"restaurant","vegan":1,"tea":false,"cuisine":"","addr":"86 Allen Street"},{"id":"n4300438090","name":"Tompkins Square Bagels","lat":40.728176,"lng":-73.982179,"cat":"cafe","vegan":1,"tea":false,"cuisine":"bagel","addr":"165 Avenue A"},{"id":"n4305837196","name":"Mesa Azteca","lat":40.705076,"lng":-73.920194,"cat":"restaurant","vegan":1,"tea":false,"cuisine":"mexican","addr":"91 Wyckoff Avenue"},{"id":"n4311338893","name":"Pasta Eater","lat":40.763557,"lng":-73.988666,"cat":"restaurant","vegan":1,"tea":false,"cuisine":"italian","addr":""},{"id":"n4315270690","name":"Ro's Diner","lat":40.708462,"lng":-73.940891,"cat":"restaurant","vegan":2,"tea":false,"cuisine":"american","addr":"197 Meserole Street"},{"id":"n4315764095","name":"Natural Blend","lat":40.684471,"lng":-73.929139,"cat":"cafe","vegan":1,"tea":false,"cuisine":"coffee_shop","addr":"243 Malcolm X Boulevard"},{"id":"n4316309556","name":"Erin McKenna’s Bakery","lat":40.718109,"lng":-73.989617,"cat":"restaurant","vegan":2,"tea":false,"cuisine":"","addr":"248 Broome Street"},{"id":"n4316480089","name":"Little Mo","lat":40.697032,"lng":-73.933697,"cat":"restaurant","vegan":1,"tea":false,"cuisine":"asian","addr":""},{"id":"n4316480189","name":"Shanti Shack","lat":40.717143,"lng":-73.962413,"cat":"cafe","vegan":1,"tea":false,"cuisine":"","addr":"85 North 3rd Street"},{"id":"n4317133391","name":"Caravan of Dreams","lat":40.726303,"lng":-73.985706,"cat":"restaurant","vegan":2,"tea":false,"cuisine":"","addr":"405 East 6th Street"},{"id":"n4416176890","name":"Turning Point (Breakfast) Restaurant","lat":40.753415,"lng":-74.023434,"cat":"restaurant","vegan":1,"tea":false,"cuisine":"","addr":"1420 Sinatra Drive North"},{"id":"n4442221391","name":"Saravanaa Bhavan","lat":40.741438,"lng":-73.983154,"cat":"restaurant","vegan":1,"tea":false,"cuisine":"indian;south_indian","addr":"81 Lexington Avenue"},{"id":"n4463188675","name":"Aldi","lat":40.733461,"lng":-73.862443,"cat":"restaurant","vegan":1,"tea":false,"cuisine":"","addr":"61-11 Junction Boulevard"},{"id":"n4491464941","name":"Party On","lat":40.699911,"lng":-73.916215,"cat":"restaurant","vegan":1,"tea":false,"cuisine":"pizza;beer","addr":"254 Irving Avenue"},{"id":"n4557451331","name":"Chipotle","lat":40.693625,"lng":-73.986367,"cat":"restaurant","vegan":1,"tea":false,"cuisine":"mexican","addr":"1 Metrotech Center"},{"id":"n4559289816","name":"CAVA","lat":40.692432,"lng":-73.988546,"cat":"restaurant","vegan":1,"tea":false,"cuisine":"mediterranean","addr":"345 Adams Street"},{"id":"n4629883934","name":"Chipotle","lat":40.861228,"lng":-73.970423,"cat":"restaurant","vegan":1,"tea":false,"cuisine":"mexican","addr":"134 Linwood Plaza"},{"id":"n4698294071","name":"Subzi Bazaar Grocery","lat":40.75273,"lng":-73.827298,"cat":"restaurant","vegan":1,"tea":false,"cuisine":"","addr":"42-92 Main Street"},{"id":"n4745482625","name":"Spicy Moon","lat":40.723443,"lng":-73.992596,"cat":"restaurant","vegan":1,"tea":false,"cuisine":"chinese","addr":"265 Bowery"},{"id":"n4757294821","name":"Taïm","lat":40.721992,"lng":-73.996137,"cat":"restaurant","vegan":1,"tea":false,"cuisine":"mediterranean","addr":"45 Spring Street"},{"id":"n4774165527","name":"Ital Kitchen","lat":40.66959,"lng":-73.957945,"cat":"restaurant","vegan":1,"tea":false,"cuisine":"caribbean","addr":"1032 Union Street"},{"id":"n4816185281","name":"Joe Coffee Company","lat":40.80755,"lng":-73.963682,"cat":"cafe","vegan":1,"tea":false,"cuisine":"coffee_shop","addr":"2950 Broadway"},{"id":"n4838600622","name":"Nonna's Pizzeria","lat":40.725971,"lng":-73.941846,"cat":"restaurant","vegan":1,"tea":false,"cuisine":"pizza;italian","addr":"253 Nassau Avenue"},{"id":"n4844172523","name":"The Bean","lat":40.731336,"lng":-73.991978,"cat":"cafe","vegan":1,"tea":false,"cuisine":"coffee_shop","addr":"771 Broadway"},{"id":"n4846152821","name":"Sweetgreen","lat":40.70561,"lng":-74.008261,"cat":"restaurant","vegan":1,"tea":false,"cuisine":"salad","addr":"67 Wall Street"},{"id":"n5023063921","name":"Burger Village","lat":40.670395,"lng":-73.978853,"cat":"restaurant","vegan":1,"tea":false,"cuisine":"burger","addr":"222 7th Avenue"},{"id":"n5097819389","name":"John's of 12th Street","lat":40.730711,"lng":-73.985489,"cat":"restaurant","vegan":1,"tea":false,"cuisine":"italian","addr":"302 East 12th Street"},{"id":"n5099589357","name":"Mint Masala","lat":40.729468,"lng":-74.001062,"cat":"restaurant","vegan":1,"tea":false,"cuisine":"indian","addr":"95 MacDougal Street"},{"id":"n5166457633","name":"Plant Blossom","lat":40.769471,"lng":-73.988536,"cat":"restaurant","vegan":1,"tea":false,"cuisine":"","addr":"881 10th Avenue"},{"id":"n5175580260","name":"La Masa Restaurant","lat":40.848025,"lng":-73.856061,"cat":"restaurant","vegan":1,"tea":false,"cuisine":"colombian;spanish;latin_american;burger;wings","addr":"1000 Morris Park Avenue"},{"id":"n5178499860","name":"Wyckoff Starr","lat":40.706139,"lng":-73.922422,"cat":"cafe","vegan":1,"tea":false,"cuisine":"coffee_shop","addr":"30 Wyckoff Avenue"},{"id":"n5190742036","name":"Turntable Chicken Jazz","lat":40.748219,"lng":-73.986415,"cat":"restaurant","vegan":1,"tea":false,"cuisine":"chicken","addr":"20 West 33rd Street"},{"id":"n5218361627","name":"Pongal","lat":40.742421,"lng":-73.982811,"cat":"restaurant","vegan":1,"tea":false,"cuisine":"indian","addr":""},{"id":"n5223969080","name":"Van Leeuwen","lat":40.718401,"lng":-73.961831,"cat":"restaurant","vegan":1,"tea":false,"cuisine":"","addr":"204 Wythe Avenue"},{"id":"n5231708184","name":"Vegetarian Dim Sum House","lat":40.714923,"lng":-73.998238,"cat":"restaurant","vegan":1,"tea":false,"cuisine":"chinese","addr":"24 Pell Street"},{"id":"n5266897272","name":"Xi'an Famous Foods","lat":40.772073,"lng":-73.95447,"cat":"restaurant","vegan":1,"tea":false,"cuisine":"chinese","addr":"328 East 78th Street"},{"id":"n5300023721","name":"The Vegoist","lat":40.754548,"lng":-73.924642,"cat":"restaurant","vegan":1,"tea":false,"cuisine":"","addr":"35-43 37th Street"},{"id":"n5319005167","name":"Union Street Pizza","lat":40.677332,"lng":-73.983363,"cat":"restaurant","vegan":1,"tea":false,"cuisine":"pizza","addr":""},{"id":"n5320691267","name":"Namaste","lat":40.676738,"lng":-73.980071,"cat":"restaurant","vegan":1,"tea":false,"cuisine":"indian","addr":"5th Avenue"},{"id":"n5335337270","name":"Gateway Cafe JWO","lat":40.743299,"lng":-74.02751,"cat":"cafe","vegan":1,"tea":false,"cuisine":"coffee_shop","addr":""},{"id":"n5343766878","name":"Barn Na Thai","lat":40.710173,"lng":-73.899476,"cat":"restaurant","vegan":1,"tea":false,"cuisine":"thai;salad;soup","addr":""},{"id":"n5343780578","name":"Milo's Yard","lat":40.704576,"lng":-73.910946,"cat":"restaurant","vegan":1,"tea":false,"cuisine":"","addr":"564 Seneca Avenue"},{"id":"n5345991352","name":"Little Egypt","lat":40.708103,"lng":-73.898042,"cat":"restaurant","vegan":1,"tea":false,"cuisine":"mediterranean","addr":"66-28 Fresh Pond Road"},{"id":"n5348387715","name":"Coco Lin Restaurant","lat":40.70988,"lng":-73.89882,"cat":"restaurant","vegan":2,"tea":false,"cuisine":"chinese","addr":"64-19 Fresh Pond Road"},{"id":"n5348392455","name":"Rudy's Pastry Shop","lat":40.700671,"lng":-73.903804,"cat":"cafe","vegan":1,"tea":false,"cuisine":"","addr":"905 Seneca Avenue"},{"id":"n5349396115","name":"Trans Am Cafe","lat":40.697016,"lng":-73.90625,"cat":"cafe","vegan":2,"tea":false,"cuisine":"","addr":"915 Wyckoff Avenue"},{"id":"n5349820069","name":"Green Basket","lat":40.697689,"lng":-73.907982,"cat":"restaurant","vegan":1,"tea":false,"cuisine":"","addr":"852 Wyckoff Avenue"},{"id":"n5351619383","name":"Cute Cat Café","lat":40.706865,"lng":-73.896912,"cat":"cafe","vegan":1,"tea":false,"cuisine":"coffee_shop;sandwich","addr":"66-69 Fresh Pond Road"},{"id":"n5351725239","name":"Nowadays","lat":40.692867,"lng":-73.901697,"cat":"restaurant","vegan":1,"tea":false,"cuisine":"","addr":"56-06 Cooper Avenue"},{"id":"n5351849572","name":"Subway","lat":40.756402,"lng":-74.044484,"cat":"restaurant","vegan":1,"tea":false,"cuisine":"sandwich","addr":"1212 Summit Avenue"},{"id":"n5364830121","name":"Chachawan Thai Restaurant","lat":40.702568,"lng":-73.901536,"cat":"restaurant","vegan":1,"tea":false,"cuisine":"thai","addr":"881 Woodward Avenue"},{"id":"n5364870785","name":"DADA","lat":40.700736,"lng":-73.896627,"cat":"cafe","vegan":1,"tea":false,"cuisine":"","addr":"60-47 Myrtle Avenue"},{"id":"n5364870788","name":"Aunt Ginny's","lat":40.705559,"lng":-73.90707,"cat":"restaurant","vegan":1,"tea":false,"cuisine":"","addr":"652 Woodward Avenue"},{"id":"n5365021888","name":"Buttah","lat":40.708068,"lng":-73.913899,"cat":"restaurant","vegan":1,"tea":false,"cuisine":"","addr":"377 Onderdonk Avenue"},{"id":"n5365035494","name":"Norma's Corner Shoppe","lat":40.702397,"lng":-73.900809,"cat":"cafe","vegan":1,"tea":false,"cuisine":"sandwich;bagel;bakery;pastry;soup","addr":"59-02 Catalpa Avenue"},{"id":"n5366399097","name":"Capybara","lat":40.697794,"lng":-73.907764,"cat":"restaurant","vegan":1,"tea":false,"cuisine":"venezuelan","addr":"853 Wyckoff Avenue"},{"id":"n5368706802","name":"Julia's Beer and Wine","lat":40.703167,"lng":-73.903,"cat":"restaurant","vegan":1,"tea":false,"cuisine":"american","addr":"818 Woodward Avenue"},{"id":"n5368787741","name":"Milk & Pull","lat":40.701755,"lng":-73.906168,"cat":"cafe","vegan":1,"tea":false,"cuisine":"coffee_shop;pastry;bagel","addr":"778 Seneca Avenue"},{"id":"n5383263131","name":"Dunkin'","lat":40.75887,"lng":-74.044567,"cat":"restaurant","vegan":1,"tea":false,"cuisine":"donut;coffee_shop","addr":"704 John F. Kennedy Boulevard"},{"id":"n5383448213","name":"Americana Grill & Cafe","lat":40.757805,"lng":-74.044122,"cat":"restaurant","vegan":1,"tea":false,"cuisine":"diner","addr":"600 Summit Avenue"},{"id":"n5384781206","name":"Lucy's Vietnamese Kitchen","lat":40.699722,"lng":-73.915952,"cat":"restaurant","vegan":1,"tea":false,"cuisine":"vietnamese","addr":"262 Irving Avenue"},{"id":"n5397494031","name":"Due Fratelli","lat":40.692787,"lng":-73.854295,"cat":"restaurant","vegan":1,"tea":false,"cuisine":"pizza;italian;sandwich","addr":"90-10 Jamaica Avenue"},{"id":"n5400494705","name":"MamaSushi","lat":40.86618,"lng":-73.92775,"cat":"restaurant","vegan":1,"tea":false,"cuisine":"japanese","addr":"237 Dyckman Street"},{"id":"n5404054421","name":"Guadalajara De Dia 2","lat":40.704536,"lng":-73.910856,"cat":"restaurant","vegan":1,"tea":false,"cuisine":"mexican;burrito;tacos;nachos;burger","addr":"566 Seneca Avenue"},{"id":"n5417085078","name":"Randy's","lat":40.700337,"lng":-73.906809,"cat":"restaurant","vegan":1,"tea":false,"cuisine":"chinese","addr":"16-93 Putnam Avenue"},{"id":"n5418882814","name":"C.Lo Cafe","lat":40.706354,"lng":-73.905447,"cat":"cafe","vegan":1,"tea":false,"cuisine":"guatemalan;burrito;breakfast;tacos","addr":"660 Fairview Avenue"},{"id":"n5419472404","name":"Bklyn Crepe","lat":40.681154,"lng":-73.975573,"cat":"restaurant","vegan":1,"tea":false,"cuisine":"crepe;health_food","addr":"214 Flatbush Avenue"},{"id":"n5419491621","name":"Cinnamon snail","lat":40.750324,"lng":-73.9918,"cat":"restaurant","vegan":1,"tea":false,"cuisine":"","addr":"2 Pennsylvania Plaza"},{"id":"n5454170709","name":"East Coast Burger","lat":40.713397,"lng":-73.912162,"cat":"restaurant","vegan":1,"tea":false,"cuisine":"american;burger","addr":"53-21 Metropolitan Avenue"},{"id":"n5455462001","name":"Cafe Himalaya","lat":40.723193,"lng":-73.987994,"cat":"restaurant","vegan":1,"tea":false,"cuisine":"tibetan","addr":"78 East 1st Street"},{"id":"n5487527347","name":"Orchard Grocer","lat":40.717789,"lng":-73.990286,"cat":"restaurant","vegan":2,"tea":false,"cuisine":"","addr":"78 Orchard Street"},{"id":"n5500383167","name":"Industry City Food Hall","lat":40.656216,"lng":-74.007758,"cat":"restaurant","vegan":1,"tea":false,"cuisine":"american;asian;burger;ice_cream;coffee_shop;kebab;pizza;sandwich","addr":"220 #2-A 36th Street"},{"id":"n5523437746","name":"Chipotle","lat":40.722542,"lng":-73.997486,"cat":"restaurant","vegan":1,"tea":false,"cuisine":"mexican","addr":"71 Spring Street"},{"id":"n5523561003","name":"Neat","lat":40.721842,"lng":-73.997134,"cat":"restaurant","vegan":2,"tea":false,"cuisine":"burger;salad;sandwich","addr":"25 Cleveland Place"},{"id":"n5536589904","name":"Grand Canyon","lat":40.671386,"lng":-73.977644,"cat":"restaurant","vegan":1,"tea":false,"cuisine":"diner;mexican","addr":""},{"id":"n5536589906","name":"Pino's La Forchetta","lat":40.671326,"lng":-73.977694,"cat":"restaurant","vegan":1,"tea":false,"cuisine":"pizza","addr":"181 7th Avenue"},{"id":"n5541240618","name":"San Remo","lat":40.700266,"lng":-73.906164,"cat":"restaurant","vegan":1,"tea":false,"cuisine":"pizza;sandwich","addr":"56-01 Myrtle Avenue"},{"id":"n5549150577","name":"Tong Dee","lat":40.67738,"lng":-73.979967,"cat":"restaurant","vegan":1,"tea":false,"cuisine":"thai","addr":"180 5th Avenue"},{"id":"n5550525387","name":"Starr Bar","lat":40.705005,"lng":-73.923039,"cat":"activity","vegan":1,"tea":false,"cuisine":"burger;mexican;wrap","addr":"214 Starr Street"},{"id":"n5552408327","name":"Johnny's Grand Cafe","lat":40.827742,"lng":-73.850278,"cat":"cafe","vegan":1,"tea":false,"cuisine":"","addr":"1001 Castle Hill Avenue"},{"id":"n5588989245","name":"Mrs. An Thai","lat":40.78739,"lng":-73.948284,"cat":"restaurant","vegan":1,"tea":false,"cuisine":"thai","addr":"173 East 99th Street"},{"id":"n5596917761","name":"Electric Beets","lat":40.672253,"lng":-73.977313,"cat":"restaurant","vegan":2,"tea":false,"cuisine":"eclectic;health_food","addr":""},{"id":"n5600702493","name":"La Villa","lat":40.674383,"lng":-73.98177,"cat":"restaurant","vegan":1,"tea":false,"cuisine":"pizza;italian","addr":""},{"id":"n5627689565","name":"Masalawala & Sons","lat":40.67128,"lng":-73.984344,"cat":"restaurant","vegan":1,"tea":false,"cuisine":"indian","addr":""},{"id":"n5633395355","name":"Van Leeuwen","lat":40.67355,"lng":-73.982844,"cat":"restaurant","vegan":1,"tea":false,"cuisine":"","addr":"304 5th Avenue"},{"id":"n5635174819","name":"Klom Klorm","lat":40.703117,"lng":-73.917064,"cat":"restaurant","vegan":1,"tea":false,"cuisine":"thai","addr":"181 Wyckoff Avenue"},{"id":"n5635871132","name":"Top City Gourmet","lat":40.702918,"lng":-73.91726,"cat":"restaurant","vegan":1,"tea":false,"cuisine":"","addr":"144 Wyckoff Avenue"},{"id":"n5642678619","name":"Kanan Indian Restaurant","lat":40.671814,"lng":-73.990919,"cat":"restaurant","vegan":1,"tea":false,"cuisine":"indian","addr":""},{"id":"n5693839899","name":"Panda House II","lat":40.763176,"lng":-74.0355,"cat":"restaurant","vegan":1,"tea":false,"cuisine":"chinese","addr":"1703 Bergenline Avenue"},{"id":"n5693839901","name":"Juice Bar","lat":40.763083,"lng":-74.035333,"cat":"restaurant","vegan":1,"tea":false,"cuisine":"juice","addr":""},{"id":"n5693951191","name":"Covert","lat":40.684963,"lng":-73.913824,"cat":"cafe","vegan":1,"tea":false,"cuisine":"coffee_shop","addr":"1643 Broadway"},{"id":"n5698095836","name":"Po Wong","lat":40.758242,"lng":-74.044235,"cat":"restaurant","vegan":1,"tea":false,"cuisine":"chinese","addr":"617 Summit Avenue"},{"id":"n5703497866","name":"Vegan Grill","lat":40.78011,"lng":-73.94986,"cat":"restaurant","vegan":2,"tea":false,"cuisine":"sandwich;chicken;mexican;mediterranean;italian;burger;breakfast","addr":"1726 2nd Avenue"},{"id":"n5712022034","name":"Chipotle","lat":40.677201,"lng":-73.972244,"cat":"restaurant","vegan":1,"tea":false,"cuisine":"mexican","addr":"347 Flatbush Avenue"},{"id":"n5712072342","name":"Nudie Jeans Repair Shop","lat":40.720928,"lng":-73.994026,"cat":"restaurant","vegan":1,"tea":false,"cuisine":"","addr":"188 Bowery"},{"id":"n5714335354","name":"Milk Bar","lat":40.677802,"lng":-73.969018,"cat":"cafe","vegan":1,"tea":false,"cuisine":"breakfast;sandwich;coffee_shop","addr":"620 Vanderbilt Avenue"},{"id":"n5715379617","name":"September","lat":40.68393,"lng":-73.917226,"cat":"cafe","vegan":1,"tea":false,"cuisine":"breakfast;coffee_shop","addr":"83 Saratoga Avenue"},{"id":"n5715462680","name":"Olmo","lat":40.683207,"lng":-73.917113,"cat":"restaurant","vegan":1,"tea":false,"cuisine":"mexican","addr":""},{"id":"n5716122821","name":"Toad Style","lat":40.686866,"lng":-73.923337,"cat":"restaurant","vegan":1,"tea":false,"cuisine":"sandwich","addr":"93 Ralph Avenue"},{"id":"n5723870934","name":"Caffeine Underground","lat":40.692215,"lng":-73.914522,"cat":"cafe","vegan":1,"tea":false,"cuisine":"coffee_shop","addr":"447 Central Avenue"},{"id":"n5742310959","name":"China Wok","lat":40.682652,"lng":-73.97923,"cat":"restaurant","vegan":1,"tea":false,"cuisine":"chinese","addr":"57 4th Avenue"},{"id":"n5742435770","name":"Noodle Fan","lat":40.752082,"lng":-74.045001,"cat":"restaurant","vegan":1,"tea":false,"cuisine":"thai","addr":"514 Central Avenue"},{"id":"n5743448065","name":"Hart Bar","lat":40.696354,"lng":-73.929998,"cat":"restaurant","vegan":1,"tea":false,"cuisine":"sandwich;snack","addr":"538 Hart Street"},{"id":"n5744312487","name":"Norbert's Pizza","lat":40.696597,"lng":-73.934963,"cat":"restaurant","vegan":1,"tea":false,"cuisine":"","addr":"4 Stuyvesant Avenue"},{"id":"n5750540226","name":"Pine Box Rock Shop","lat":40.705333,"lng":-73.932694,"cat":"restaurant","vegan":1,"tea":false,"cuisine":"","addr":"12 Grattan Street"},{"id":"n5754840634","name":"Blossom Du Jour","lat":40.759589,"lng":-73.991999,"cat":"restaurant","vegan":1,"tea":false,"cuisine":"","addr":"617 9th Avenue"},{"id":"n5798954995","name":"Bunna Cafe","lat":40.704889,"lng":-73.927863,"cat":"restaurant","vegan":1,"tea":false,"cuisine":"ethiopian","addr":"1084 Flushing Avenue"},{"id":"n5807804739","name":"Bijan's","lat":40.688024,"lng":-73.986703,"cat":"restaurant","vegan":1,"tea":false,"cuisine":"mediterranean;persian;brunch","addr":"81 Hoyt Street"},{"id":"n5810383921","name":"Bravo Kosher Pizza","lat":40.706667,"lng":-74.013514,"cat":"restaurant","vegan":1,"tea":false,"cuisine":"pizza;sushi","addr":"17 Trinity Place"},{"id":"n5839192489","name":"Karma Kafe","lat":40.74241,"lng":-74.029189,"cat":"restaurant","vegan":1,"tea":false,"cuisine":"indian","addr":"505 Washington Street"},{"id":"n5839908901","name":"Chipotle","lat":40.739598,"lng":-74.030048,"cat":"restaurant","vegan":1,"tea":false,"cuisine":"mexican","addr":"229 Washington Street"},{"id":"n5842020678","name":"Vegetarian Palate","lat":40.679613,"lng":-73.963935,"cat":"restaurant","vegan":1,"tea":false,"cuisine":"chinese","addr":""},{"id":"n5849929497","name":"Irving Farm Coffee Roasters","lat":40.72966,"lng":-73.998754,"cat":"cafe","vegan":1,"tea":false,"cuisine":"","addr":"78 West 3rd Street"},{"id":"n5857677523","name":"Gracie Mews Restaurant","lat":40.77344,"lng":-73.951605,"cat":"restaurant","vegan":1,"tea":false,"cuisine":"diner","addr":"1550 1st Avenue"},{"id":"n5889398141","name":"Pizza Plus","lat":40.665901,"lng":-73.982218,"cat":"restaurant","vegan":1,"tea":false,"cuisine":"pizza","addr":""},{"id":"n5891774858","name":"Breakfast by Salt’s Cure","lat":40.680338,"lng":-73.9677,"cat":"restaurant","vegan":1,"tea":false,"cuisine":"breakfast","addr":""},{"id":"n5909817445","name":"Bettí","lat":40.774931,"lng":-74.020551,"cat":"restaurant","vegan":1,"tea":false,"cuisine":"turkish","addr":""},{"id":"n5912968126","name":"Cafe Chili","lat":40.688003,"lng":-73.993349,"cat":"restaurant","vegan":1,"tea":false,"cuisine":"thai","addr":""},{"id":"n5916553158","name":"Fat Choy","lat":40.718093,"lng":-73.989762,"cat":"restaurant","vegan":1,"tea":false,"cuisine":"asian","addr":"250 Broome Street"},{"id":"n5916567906","name":"Hotel Chantelle","lat":40.718416,"lng":-73.989054,"cat":"restaurant","vegan":1,"tea":false,"cuisine":"american","addr":"92 Ludlow Street"},{"id":"n5937855594","name":"Santa Salsa","lat":40.705563,"lng":-73.922511,"cat":"restaurant","vegan":1,"tea":false,"cuisine":"venezuelan","addr":""},{"id":"n5963034386","name":"7 Grain Army","lat":40.716259,"lng":-73.955418,"cat":"cafe","vegan":1,"tea":false,"cuisine":"","addr":"88 Roebling Street"},{"id":"n5970419085","name":"Very Fresh Noodles","lat":40.74216,"lng":-74.00539,"cat":"restaurant","vegan":1,"tea":false,"cuisine":"","addr":"409 West 15th Street"},{"id":"n5970809860","name":"Taste of India","lat":40.727123,"lng":-74.038549,"cat":"restaurant","vegan":1,"tea":false,"cuisine":"","addr":""},{"id":"n5978795186","name":"Da Claudio","lat":40.710822,"lng":-74.00763,"cat":"restaurant","vegan":1,"tea":false,"cuisine":"italian","addr":"21 Ann Street"},{"id":"n5987486738","name":"White Maize","lat":40.68247,"lng":-73.993208,"cat":"restaurant","vegan":1,"tea":false,"cuisine":"latin_american","addr":""},{"id":"n5987826185","name":"Adda","lat":40.726814,"lng":-73.98614,"cat":"restaurant","vegan":1,"tea":false,"cuisine":"indian","addr":""},{"id":"n5987980586","name":"Los Tacos No.1","lat":40.757422,"lng":-73.987814,"cat":"restaurant","vegan":1,"tea":false,"cuisine":"mexican","addr":"229 West 43rd Street"},{"id":"n5987980587","name":"A.T.M. Vegan Deli","lat":40.690966,"lng":-73.95591,"cat":"restaurant","vegan":2,"tea":false,"cuisine":"breakfast;sandwich","addr":"525 DeKalb Avenue"},{"id":"n6006148886","name":"Chez Alex","lat":40.687523,"lng":-73.923786,"cat":"cafe","vegan":1,"tea":false,"cuisine":"","addr":""},{"id":"n6050149079","name":"Newtown","lat":40.709125,"lng":-73.937195,"cat":"restaurant","vegan":1,"tea":false,"cuisine":"mediterranean","addr":"55 Waterbury Street"},{"id":"n6053192785","name":"POST","lat":40.722941,"lng":-73.982927,"cat":"restaurant","vegan":1,"tea":false,"cuisine":"american","addr":""},{"id":"n6071606246","name":"Roots Cafe","lat":40.662845,"lng":-73.991657,"cat":"cafe","vegan":1,"tea":false,"cuisine":"coffee_shop;breakfast;american","addr":"639 5th Avenue"},{"id":"n6088775969","name":"Penny House Cafe","lat":40.676053,"lng":-73.963613,"cat":"cafe","vegan":1,"tea":false,"cuisine":"breakfast;sandwich;coffee_shop","addr":""},{"id":"n6128709937","name":"Sol Sips","lat":40.699074,"lng":-73.922556,"cat":"restaurant","vegan":1,"tea":false,"cuisine":"sandwich","addr":"203 Wilson Avenue"},{"id":"n6129257460","name":"They Say That","lat":40.690113,"lng":-73.906873,"cat":"restaurant","vegan":1,"tea":false,"cuisine":"thai","addr":"615 Wilson Avenue"},{"id":"n6129276916","name":"Fire House 2 Deli Grocery","lat":40.68892,"lng":-73.905249,"cat":"restaurant","vegan":1,"tea":false,"cuisine":"breakfast;sandwich","addr":"644 Wilson Avenue"},{"id":"n6179753683","name":"Taïm","lat":40.7078,"lng":-74.007746,"cat":"restaurant","vegan":1,"tea":false,"cuisine":"mediterranean","addr":"75 Maiden Lane"},{"id":"n6204656993","name":"Izzy Rose","lat":40.68694,"lng":-73.962829,"cat":"restaurant","vegan":1,"tea":false,"cuisine":"snack","addr":"214 Greene Avenue"},{"id":"n6206430650","name":"Gnocchi on 9th","lat":40.728912,"lng":-73.98633,"cat":"restaurant","vegan":1,"tea":false,"cuisine":"italian","addr":"315 East 9th Street"},{"id":"n6211849520","name":"Claudia's","lat":40.713551,"lng":-73.941286,"cat":"restaurant","vegan":1,"tea":false,"cuisine":"guatemalan;brunch","addr":"39 Bushwick Avenue"},{"id":"n6222075595","name":"W4 Noodle House","lat":40.731352,"lng":-74.000465,"cat":"restaurant","vegan":1,"tea":false,"cuisine":"chinese","addr":"144 West 4th Street"},{"id":"n6231491547","name":"Shun Wei","lat":40.711856,"lng":-73.996757,"cat":"restaurant","vegan":1,"tea":false,"cuisine":"chinese","addr":"45 Catherine Street"},{"id":"n6231529909","name":"Jajaja Plantas Mexicanas","lat":40.714283,"lng":-73.990386,"cat":"restaurant","vegan":2,"tea":false,"cuisine":"mexican","addr":"162 East Broadway"},{"id":"n6237520255","name":"Bangklyn East Harlem","lat":40.790253,"lng":-73.942941,"cat":"restaurant","vegan":1,"tea":false,"cuisine":"thai","addr":"2051 2nd Avenue"},{"id":"n6278128485","name":"Superiority Burger","lat":40.726447,"lng":-73.983431,"cat":"restaurant","vegan":1,"tea":false,"cuisine":"","addr":"119 Avenue A"},{"id":"n6280146793","name":"Public Records","lat":40.682101,"lng":-73.986522,"cat":"restaurant","vegan":1,"tea":false,"cuisine":"coffee_shop;sandwich","addr":"233 Butler Street"},{"id":"n6281164644","name":"Confectionery!","lat":40.72732,"lng":-73.983075,"cat":"restaurant","vegan":1,"tea":false,"cuisine":"","addr":"440 East 9th Street"},{"id":"n6300062996","name":"Greek Xpress","lat":40.659913,"lng":-73.980584,"cat":"restaurant","vegan":1,"tea":false,"cuisine":"greek;pizza","addr":""},{"id":"n6300063010","name":"SyKo","lat":40.660276,"lng":-73.98066,"cat":"restaurant","vegan":1,"tea":false,"cuisine":"korean;syrian","addr":""},{"id":"n6307037084","name":"Wild Ginger Vegan Cafe","lat":40.687894,"lng":-73.989827,"cat":"restaurant","vegan":2,"tea":false,"cuisine":"asian","addr":""},{"id":"n6314774119","name":"Planted Cafe","lat":40.68053,"lng":-73.994503,"cat":"cafe","vegan":2,"tea":false,"cuisine":"health_food;breakfast","addr":""},{"id":"n6344011421","name":"Quantum Leap","lat":40.760606,"lng":-73.961484,"cat":"restaurant","vegan":1,"tea":false,"cuisine":"","addr":"1103 1st Avenue"},{"id":"n6361314207","name":"Saffron Indian Cuisine","lat":40.703339,"lng":-73.907404,"cat":"restaurant","vegan":1,"tea":false,"cuisine":"indian","addr":"1819 Palmetto Street"},{"id":"n6362867801","name":"16 Handles","lat":40.743121,"lng":-73.98026,"cat":"cafe","vegan":1,"tea":false,"cuisine":"frozen_yogurt;health_food","addr":""},{"id":"n6397520967","name":"Brooklyn Standard","lat":40.725351,"lng":-73.945675,"cat":"restaurant","vegan":1,"tea":false,"cuisine":"sandwich;breakfast;salad;juice","addr":"188 Nassau Avenue"},{"id":"n6407882846","name":"Plant Made","lat":40.726039,"lng":-73.989773,"cat":"restaurant","vegan":2,"tea":false,"cuisine":"mexican;italian;pizza","addr":"65 2nd Avenue"},{"id":"n6412293526","name":"Coletta Italian Vegan Restaurant","lat":40.740936,"lng":-73.981374,"cat":"restaurant","vegan":1,"tea":false,"cuisine":"italian","addr":"365 3rd Avenue"},{"id":"n6418623098","name":"Ginger Root Vegan","lat":40.762503,"lng":-73.95964,"cat":"restaurant","vegan":2,"tea":false,"cuisine":"chinese","addr":"1164 1st Avenue"},{"id":"n6422307085","name":"Tartinery","lat":40.76871,"lng":-73.982797,"cat":"cafe","vegan":1,"tea":false,"cuisine":"french;juice","addr":"10 Columbus Circle"},{"id":"n6426529064","name":"Natural Blend","lat":40.673898,"lng":-73.962848,"cat":"restaurant","vegan":1,"tea":false,"cuisine":"health_food;juice","addr":""},{"id":"n6426844841","name":"Van Leeuwen","lat":40.680393,"lng":-73.96813,"cat":"restaurant","vegan":1,"tea":false,"cuisine":"","addr":""},{"id":"n6458026085","name":"Avant Garden","lat":40.725644,"lng":-73.984015,"cat":"restaurant","vegan":2,"tea":false,"cuisine":"eclectic","addr":"95 Avenue A"},{"id":"n6479472844","name":"Van Leeuwen Ice Cream","lat":40.72154,"lng":-73.987469,"cat":"restaurant","vegan":1,"tea":false,"cuisine":"pastry","addr":"172 Ludlow Street"},{"id":"n6498949989","name":"Phorainbow","lat":40.686833,"lng":-73.990233,"cat":"cafe","vegan":1,"tea":true,"cuisine":"vietnamese;bubble_tea","addr":""},{"id":"n6534166846","name":"Sweetgreen","lat":40.689921,"lng":-73.992072,"cat":"restaurant","vegan":1,"tea":false,"cuisine":"salad","addr":"127 Court Street"},{"id":"n6542803859","name":"Ahimsa","lat":40.747945,"lng":-73.975821,"cat":"restaurant","vegan":1,"tea":false,"cuisine":"indian","addr":""},{"id":"n6558575360","name":"The Gradient","lat":40.706804,"lng":-73.922933,"cat":"restaurant","vegan":1,"tea":false,"cuisine":"","addr":"17 Wyckoff Avenue"},{"id":"n6565329289","name":"Banh Mi Zon","lat":40.725726,"lng":-73.984314,"cat":"restaurant","vegan":1,"tea":false,"cuisine":"vietnamese;sandwich","addr":"443 East 6th Street"},{"id":"n6565478400","name":"Spicy Moon","lat":40.726729,"lng":-73.987199,"cat":"restaurant","vegan":1,"tea":false,"cuisine":"chinese","addr":"328 East 6th Street"},{"id":"n6568734640","name":"The Grand Daddy","lat":40.717721,"lng":-73.992045,"cat":"cafe","vegan":1,"tea":false,"cuisine":"coffee_shop","addr":"290 Grand Street"},{"id":"n6606935746","name":"Blossom on Columbus","lat":40.78539,"lng":-73.972724,"cat":"restaurant","vegan":2,"tea":false,"cuisine":"","addr":"507 Columbus Avenue"},{"id":"n6630118961","name":"Bareburger LES","lat":40.721633,"lng":-73.98855,"cat":"restaurant","vegan":1,"tea":false,"cuisine":"burger","addr":"173 Orchard Street"},{"id":"n6670244827","name":"Finestra Restaurant","lat":40.767558,"lng":-73.95297,"cat":"restaurant","vegan":1,"tea":false,"cuisine":"italian","addr":"1370 York Avenue"},{"id":"n6672519068","name":"Kasbah Bakery","lat":40.68332,"lng":-74.003365,"cat":"cafe","vegan":1,"tea":false,"cuisine":"pastry;sandwich;brunch","addr":""},{"id":"n6689923799","name":"Bagels & Co.","lat":40.769261,"lng":-73.951755,"cat":"restaurant","vegan":1,"tea":false,"cuisine":"","addr":"1428 York Avenue"},{"id":"n6709938306","name":"Familiars Vegan Coffee Shop","lat":40.686795,"lng":-73.923641,"cat":"cafe","vegan":1,"tea":false,"cuisine":"","addr":"94 Ralph Avenue"},{"id":"n6710345510","name":"Happy Zoe Vegan Bakery","lat":40.724052,"lng":-73.949648,"cat":"restaurant","vegan":2,"tea":false,"cuisine":"","addr":"102 Nassau Avenue"},{"id":"n6710934177","name":"Holy Pita","lat":40.697552,"lng":-73.971915,"cat":"restaurant","vegan":1,"tea":false,"cuisine":"mediterranean","addr":"10 Clermont Avenue"},{"id":"n6713109639","name":"Amituofo Vegan Cuisine","lat":40.703733,"lng":-73.933064,"cat":"restaurant","vegan":2,"tea":false,"cuisine":"asian","addr":"19 Bogart Street"},{"id":"n6724357509","name":"Greedi Kitchen","lat":40.683729,"lng":-73.923056,"cat":"restaurant","vegan":1,"tea":false,"cuisine":"","addr":"180 Ralph Avenue"},{"id":"n6742724900","name":"Wild Ginger","lat":40.785575,"lng":-73.727461,"cat":"restaurant","vegan":1,"tea":false,"cuisine":"asian","addr":""},{"id":"n6778205744","name":"Apollo Bagels","lat":40.74094,"lng":-74.030035,"cat":"restaurant","vegan":1,"tea":false,"cuisine":"bagel;burger","addr":""},{"id":"n6788670543","name":"Tacoria","lat":40.739129,"lng":-74.030595,"cat":"restaurant","vegan":1,"tea":false,"cuisine":"mexican","addr":""},{"id":"n6833338806","name":"Luanne's Wild Ginger","lat":40.675387,"lng":-73.956423,"cat":"restaurant","vegan":1,"tea":false,"cuisine":"asian","addr":""},{"id":"n6833338807","name":"Diwan Grill","lat":40.675341,"lng":-73.956441,"cat":"restaurant","vegan":1,"tea":false,"cuisine":"indian","addr":""},{"id":"n6886916465","name":"Poke City","lat":40.691332,"lng":-73.991034,"cat":"restaurant","vegan":1,"tea":false,"cuisine":"poke;salad","addr":""},{"id":"n6896325800","name":"Juice Press","lat":40.692492,"lng":-73.991427,"cat":"restaurant","vegan":1,"tea":false,"cuisine":"juice;health_food","addr":"194 Joralemon Street"},{"id":"n6900833957","name":"Beets and Carrots","lat":40.614062,"lng":-74.034889,"cat":"cafe","vegan":1,"tea":false,"cuisine":"american","addr":"9905 3rd Avenue"},{"id":"n6903042182","name":"Spring Cafe","lat":40.717885,"lng":-74.000247,"cat":"cafe","vegan":2,"tea":false,"cuisine":"asian;burger","addr":"153 Centre Street"},{"id":"n6910758321","name":"Ahimsa","lat":40.728392,"lng":-73.983236,"cat":"restaurant","vegan":1,"tea":false,"cuisine":"indian","addr":""},{"id":"n6941252618","name":"Bambu","lat":40.71696,"lng":-73.994701,"cat":"cafe","vegan":1,"tea":true,"cuisine":"vietnamese;bubble_tea","addr":"124 Hester Street"},{"id":"n6955273589","name":"Van Leeuwen Ice Cream","lat":40.707629,"lng":-74.00224,"cat":"restaurant","vegan":1,"tea":false,"cuisine":"","addr":"224 Front Street"},{"id":"n6955273592","name":"Van Leeuwen Ice Cream","lat":40.723599,"lng":-73.950545,"cat":"restaurant","vegan":1,"tea":false,"cuisine":"","addr":"620 Manhattan Avenue"},{"id":"n6955273885","name":"Van Leeuwen Ice Cream","lat":40.718382,"lng":-73.961845,"cat":"restaurant","vegan":1,"tea":false,"cuisine":"","addr":"204 Wythe Avenue"},{"id":"n6969716317","name":"Thyme & Tonic","lat":40.784456,"lng":-73.973901,"cat":"restaurant","vegan":1,"tea":false,"cuisine":"american;asian","addr":"474 Columbus Avenue"},{"id":"n6989887803","name":"Subia‘s Vegan Cafe","lat":40.720054,"lng":-74.046832,"cat":"cafe","vegan":1,"tea":false,"cuisine":"","addr":"506 Jersey Avenue"},{"id":"n7045376572","name":"Love and Dough","lat":40.703047,"lng":-73.987474,"cat":"restaurant","vegan":1,"tea":false,"cuisine":"italian","addr":"57 Pearl Street"},{"id":"n7075631332","name":"Starbucks","lat":40.631557,"lng":-74.02759,"cat":"cafe","vegan":1,"tea":false,"cuisine":"coffee_shop","addr":"7419 3rd Avenue"},{"id":"n7085207165","name":"Anand Indian Cuisine","lat":40.772368,"lng":-73.955182,"cat":"restaurant","vegan":1,"tea":false,"cuisine":"indian","addr":"304 East 78th Street"},{"id":"n7087208400","name":"Glur Thai","lat":40.741194,"lng":-73.99672,"cat":"restaurant","vegan":1,"tea":false,"cuisine":"thai","addr":"144 West 19th Street"},{"id":"n7097867547","name":"El Churro","lat":40.722662,"lng":-73.988443,"cat":"restaurant","vegan":1,"tea":false,"cuisine":"churro;dessert;chocolate","addr":"175 East Houston St"},{"id":"n7126548176","name":"Yo Fresh - Shogun Sushi","lat":40.699702,"lng":-73.908865,"cat":"restaurant","vegan":1,"tea":false,"cuisine":"sushi;poke;frozen_yogurt","addr":"54-56 Myrtle Avenue"},{"id":"n7160825479","name":"Sathi","lat":40.73622,"lng":-73.98528,"cat":"restaurant","vegan":1,"tea":false,"cuisine":"","addr":""},{"id":"n7162418888","name":"Le Botaniste","lat":40.720473,"lng":-74.000209,"cat":"restaurant","vegan":1,"tea":false,"cuisine":"health_food;eclectic","addr":"127 Grand Street"},{"id":"n7239676094","name":"Chipotle","lat":40.765962,"lng":-73.957109,"cat":"restaurant","vegan":1,"tea":false,"cuisine":"mexican","addr":"1288 1st Avenue"},{"id":"n7295644414","name":"Chipotle","lat":40.726777,"lng":-74.035238,"cat":"restaurant","vegan":1,"tea":false,"cuisine":"mexican","addr":"525 Washington Boulevard G"},{"id":"n7351135352","name":"Just Salad","lat":40.726518,"lng":-74.035335,"cat":"restaurant","vegan":1,"tea":false,"cuisine":"salad","addr":"525 Washington Boulevard"},{"id":"n7369844952","name":"The Little Beet","lat":40.74402,"lng":-73.988776,"cat":"restaurant","vegan":1,"tea":false,"cuisine":"","addr":"1140 Broadway"},{"id":"n7418093311","name":"Van Leeuwen Ice Cream","lat":40.784885,"lng":-73.977304,"cat":"restaurant","vegan":1,"tea":false,"cuisine":"","addr":"448 Amsterdam Avenue"},{"id":"n7613094139","name":"Dos Toros","lat":40.773753,"lng":-73.872296,"cat":"restaurant","vegan":1,"tea":false,"cuisine":"mexican","addr":""},{"id":"n7674767841","name":"Whole Foods Market","lat":40.75274,"lng":-73.999786,"cat":"restaurant","vegan":1,"tea":false,"cuisine":"","addr":"368 10th Avenue"},{"id":"n8110365548","name":"Yummy Yummy in my Tummy","lat":40.714671,"lng":-73.95165,"cat":"restaurant","vegan":1,"tea":false,"cuisine":"middle_eastern","addr":""},{"id":"n8289844992","name":"Amorino","lat":40.771448,"lng":-73.98254,"cat":"restaurant","vegan":1,"tea":false,"cuisine":"","addr":"44 West 63rd Street"},{"id":"n8333736470","name":"Wok Wok Southeast Asian Kitchen","lat":40.714051,"lng":-73.998829,"cat":"restaurant","vegan":1,"tea":false,"cuisine":"asian;malaysian","addr":""},{"id":"n8333740849","name":"May Kaidee","lat":40.714155,"lng":-73.987474,"cat":"restaurant","vegan":2,"tea":false,"cuisine":"thai","addr":""},{"id":"n8416888682","name":"The Blaze Gourmet","lat":40.584985,"lng":-73.950987,"cat":"restaurant","vegan":1,"tea":false,"cuisine":"turkish;burger","addr":"3371 Shore Parkway"},{"id":"n8501495834","name":"Somtum Der","lat":40.6771,"lng":-74.013452,"cat":"restaurant","vegan":1,"tea":false,"cuisine":"thai","addr":""},{"id":"n8685728799","name":"Hellbender Nighttime Cafe","lat":40.702989,"lng":-73.901376,"cat":"restaurant","vegan":1,"tea":false,"cuisine":"","addr":"68-22 Forest Avenue"},{"id":"n8783482554","name":"Zen Garden","lat":40.786759,"lng":-73.727052,"cat":"restaurant","vegan":1,"tea":false,"cuisine":"","addr":"1 Great Neck Road"},{"id":"n8783927952","name":"Dunkin'","lat":40.781595,"lng":-73.979236,"cat":"restaurant","vegan":1,"tea":false,"cuisine":"donut;coffee_shop","addr":"353 Amsterdam Avenue"},{"id":"n8787410950","name":"Le Botaniste","lat":40.774143,"lng":-73.981438,"cat":"cafe","vegan":1,"tea":false,"cuisine":"","addr":"156 Columbus Avenue"},{"id":"n8805920182","name":"Gourmet Express","lat":40.890444,"lng":-73.817589,"cat":"restaurant","vegan":1,"tea":false,"cuisine":"smoothie","addr":"924 West Street"},{"id":"n8851723958","name":"Xi'an Famous Foods","lat":40.692098,"lng":-73.986698,"cat":"restaurant","vegan":1,"tea":false,"cuisine":"chinese;noodle","addr":"54 Willoughby Street"},{"id":"n8890918163","name":"Starbucks","lat":40.753596,"lng":-73.999295,"cat":"cafe","vegan":1,"tea":false,"cuisine":"coffee_shop","addr":"450 West 33rd Street"},{"id":"n8904932598","name":"Vanessa's Dumpling House","lat":40.725018,"lng":-73.8509,"cat":"restaurant","vegan":1,"tea":false,"cuisine":"chinese;dumplings","addr":"102-30 Queens Boulevard"},{"id":"n8929404653","name":"Vegan Deli","lat":40.783002,"lng":-73.95116,"cat":"restaurant","vegan":1,"tea":false,"cuisine":"","addr":"1650 3rd Avenue"},{"id":"n8972592597","name":"Khaosan","lat":40.694635,"lng":-73.99423,"cat":"restaurant","vegan":1,"tea":false,"cuisine":"thai","addr":""},{"id":"n8981032240","name":"Lock Yard","lat":40.617337,"lng":-74.029567,"cat":"restaurant","vegan":1,"tea":false,"cuisine":"hot_dog","addr":""},{"id":"n8991951240","name":"Lucky Vegetarian","lat":40.640405,"lng":-74.004237,"cat":"restaurant","vegan":1,"tea":false,"cuisine":"chinese;buddhist","addr":""},{"id":"n9068869758","name":"KebabishQ,","lat":40.728315,"lng":-73.987644,"cat":"restaurant","vegan":2,"tea":false,"cuisine":"american","addr":""},{"id":"n9084730002","name":"Zed Eats and Drinks","lat":40.656768,"lng":-73.959954,"cat":"restaurant","vegan":1,"tea":false,"cuisine":"american","addr":"675 Flatbush Avenue"},{"id":"n9121203301","name":"Dog Day Afternoon","lat":40.658583,"lng":-73.982153,"cat":"restaurant","vegan":1,"tea":false,"cuisine":"hot_dog","addr":""},{"id":"n9123117118","name":"Starbucks","lat":40.694556,"lng":-73.993973,"cat":"cafe","vegan":1,"tea":false,"cuisine":"coffee_shop","addr":"134 Montague Street"},{"id":"n9146399218","name":"Emack & Bolio's","lat":40.575548,"lng":-73.977085,"cat":"restaurant","vegan":1,"tea":false,"cuisine":"","addr":"825 Surf Avenue"},{"id":"n9173311253","name":"Van Leeuwen","lat":40.776935,"lng":-73.952653,"cat":"restaurant","vegan":1,"tea":false,"cuisine":"","addr":"1625 2nd Avenue"},{"id":"n9275805190","name":"Williamsburg Pizza","lat":40.776537,"lng":-73.95294,"cat":"restaurant","vegan":1,"tea":false,"cuisine":"pizza","addr":"617 2nd Avenue"},{"id":"n9283550594","name":"Dig","lat":40.767048,"lng":-73.956766,"cat":"restaurant","vegan":1,"tea":false,"cuisine":"regional","addr":"1319 1st Avenue"},{"id":"n9321723922","name":"le Réveil","lat":40.767172,"lng":-73.959311,"cat":"cafe","vegan":1,"tea":false,"cuisine":"","addr":"1322 2nd Avenue"},{"id":"n9369350841","name":"Avlee","lat":40.67991,"lng":-73.994942,"cat":"restaurant","vegan":1,"tea":false,"cuisine":"greek","addr":"349 Smith Street"},{"id":"n9374707287","name":"Rebel Cheese","lat":40.718047,"lng":-73.988196,"cat":"restaurant","vegan":2,"tea":false,"cuisine":"","addr":"88 Essex Street"},{"id":"n9392834428","name":"Jian Chinese Restaurant","lat":40.764744,"lng":-73.726079,"cat":"restaurant","vegan":1,"tea":false,"cuisine":"chinese","addr":"254-35 Nassau Boulevard"},{"id":"n9392834430","name":"Amali","lat":40.763349,"lng":-73.968586,"cat":"restaurant","vegan":1,"tea":false,"cuisine":"mediterranean","addr":"115 East 60th Street"},{"id":"n9392834432","name":"Spice Symphony","lat":40.755892,"lng":-73.971613,"cat":"restaurant","vegan":1,"tea":false,"cuisine":"fusion;indian;chinese","addr":"150 East 50th Street"},{"id":"n9496982046","name":"Punjabi Junction","lat":40.777485,"lng":-73.949159,"cat":"restaurant","vegan":1,"tea":false,"cuisine":"indian","addr":"1665 1st Avenue"},{"id":"n9518146176","name":"Ras","lat":40.67343,"lng":-73.956817,"cat":"restaurant","vegan":1,"tea":false,"cuisine":"ethiopian","addr":""},{"id":"n9543908517","name":"Fong On","lat":40.714199,"lng":-73.993696,"cat":"restaurant","vegan":1,"tea":false,"cuisine":"chinese","addr":""},{"id":"n9543945217","name":"Oasis","lat":40.718256,"lng":-73.957425,"cat":"restaurant","vegan":1,"tea":false,"cuisine":"middle_eastern","addr":""},{"id":"n9558935214","name":"Chama Mama","lat":40.738415,"lng":-73.998919,"cat":"restaurant","vegan":1,"tea":false,"cuisine":"georgian","addr":"149 West 14th Street"},{"id":"n9583501317","name":"Lucy's Vietnamese","lat":40.685606,"lng":-73.954168,"cat":"restaurant","vegan":1,"tea":false,"cuisine":"vietnamese","addr":"1111 Bedford Avenue"},{"id":"n9630409572","name":"Casse/Cou","lat":40.726841,"lng":-73.990726,"cat":"restaurant","vegan":1,"tea":false,"cuisine":"","addr":""},{"id":"n9634217343","name":"Vegan Pastry Lab","lat":40.885139,"lng":-73.980233,"cat":"restaurant","vegan":1,"tea":false,"cuisine":"","addr":""},{"id":"n9641923314","name":"Ben & Jerry's","lat":40.799771,"lng":-73.967878,"cat":"restaurant","vegan":1,"tea":false,"cuisine":"ice_cream","addr":"2722 Broadway"},{"id":"n9644596256","name":"Koku Ramen","lat":40.747296,"lng":-73.986098,"cat":"restaurant","vegan":1,"tea":false,"cuisine":"japanese;ramen","addr":""},{"id":"n9695903781","name":"BRUJOS Brooklyn Taco Company","lat":40.714307,"lng":-73.944517,"cat":"restaurant","vegan":1,"tea":false,"cuisine":"mexican","addr":"333 Graham Avenue"},{"id":"n9752127120","name":"Buntopia","lat":40.696057,"lng":-73.933906,"cat":"restaurant","vegan":1,"tea":false,"cuisine":"asian","addr":"994 Broadway"},{"id":"n9752174406","name":"jajaja","lat":40.720175,"lng":-73.961724,"cat":"restaurant","vegan":2,"tea":false,"cuisine":"","addr":"119 Kent Avenue"},{"id":"n9779884979","name":"Frankie's","lat":40.634387,"lng":-74.027047,"cat":"restaurant","vegan":1,"tea":false,"cuisine":"pizza","addr":"279 71st Street"},{"id":"n9786078580","name":"The Brooklyn Firefly","lat":40.634652,"lng":-74.026301,"cat":"restaurant","vegan":1,"tea":false,"cuisine":"pizza","addr":""},{"id":"n9793178849","name":"Em Vietnamese Bistro","lat":40.70269,"lng":-73.9914,"cat":"restaurant","vegan":1,"tea":false,"cuisine":"vietnamese","addr":"57 Front Street"},{"id":"n9797307326","name":"Rim Nam Thai Kitchen","lat":40.703309,"lng":-73.986769,"cat":"restaurant","vegan":1,"tea":false,"cuisine":"thai","addr":""},{"id":"n9845565310","name":"Willow Vegan Bistro","lat":40.74365,"lng":-73.999924,"cat":"restaurant","vegan":2,"tea":false,"cuisine":"bistro;american","addr":"199 8th Avenue"},{"id":"n9848992562","name":"Peacefood","lat":40.733266,"lng":-73.992974,"cat":"restaurant","vegan":2,"tea":false,"cuisine":"","addr":"41 East 11th Street"},{"id":"n9879092109","name":"Mara's Ice Cream Parlor","lat":40.586348,"lng":-73.815987,"cat":"restaurant","vegan":1,"tea":false,"cuisine":"","addr":""},{"id":"n9898593817","name":"Van Leeuwen","lat":40.77689,"lng":-73.978947,"cat":"restaurant","vegan":1,"tea":false,"cuisine":"","addr":"253 Columbus Avenue"},{"id":"n9923786492","name":"Choc O Pain French Bakery and Café","lat":40.721006,"lng":-74.046309,"cat":"cafe","vegan":1,"tea":false,"cuisine":"french","addr":""},{"id":"n9964704539","name":"Head Hi","lat":40.697724,"lng":-73.970955,"cat":"cafe","vegan":1,"tea":false,"cuisine":"coffee_shop","addr":"146 Flushing Avenue"},{"id":"n10000521613","name":"Tamam Falafel","lat":40.774034,"lng":-73.959757,"cat":"restaurant","vegan":1,"tea":false,"cuisine":"falafel","addr":"1108 Lexington Avenue"},{"id":"n10000674926","name":"Scen","lat":40.744829,"lng":-73.989006,"cat":"restaurant","vegan":1,"tea":false,"cuisine":"","addr":"1165 Broadway"},{"id":"n10024111241","name":"L'imprimerie","lat":40.699262,"lng":-73.91287,"cat":"cafe","vegan":1,"tea":false,"cuisine":"french","addr":"1524 Myrtle Avenue"},{"id":"n10065608198","name":"Busy Bee Organics","lat":40.744132,"lng":-74.044367,"cat":"cafe","vegan":1,"tea":false,"cuisine":"","addr":"451 Palisade Avenue"},{"id":"n10073864124","name":"Go-Chin Khao Man Gal","lat":40.73523,"lng":-73.979989,"cat":"restaurant","vegan":1,"tea":false,"cuisine":"thai","addr":""},{"id":"n10078964009","name":"Two Boots Pizza","lat":40.72021,"lng":-74.043589,"cat":"restaurant","vegan":1,"tea":false,"cuisine":"pizza","addr":"133 Newark Avenue"},{"id":"n10107120017","name":"Michaeli Bakery","lat":40.779397,"lng":-73.947138,"cat":"restaurant","vegan":1,"tea":false,"cuisine":"israeli","addr":"401 East 90th Street"},{"id":"n10110388866","name":"Greedi Vegan","lat":40.686533,"lng":-73.944704,"cat":"restaurant","vegan":1,"tea":false,"cuisine":"","addr":"326 Tompkins Avenue"},{"id":"n10134134927","name":"Bagel Works","lat":40.76431,"lng":-73.958782,"cat":"restaurant","vegan":1,"tea":false,"cuisine":"bagel","addr":"1129 1st Avenue"},{"id":"n10224616954","name":"Desi Stop","lat":40.72653,"lng":-73.989408,"cat":"restaurant","vegan":1,"tea":false,"cuisine":"indian","addr":""},{"id":"n10238102608","name":"Mama Yoshi Mini Mart","lat":40.703158,"lng":-73.911078,"cat":"restaurant","vegan":1,"tea":false,"cuisine":"japanese;sandwich","addr":"1711 Grove Street"},{"id":"n10270699215","name":"Vegan Grill","lat":40.728017,"lng":-73.986626,"cat":"restaurant","vegan":1,"tea":false,"cuisine":"","addr":""},{"id":"n10315606401","name":"Brooklyn Perk","lat":40.658593,"lng":-73.960314,"cat":"cafe","vegan":1,"tea":false,"cuisine":"coffee_shop","addr":"605 Flatbush Avenue"},{"id":"n10568411909","name":"Urban Hawker","lat":40.760987,"lng":-73.982274,"cat":"restaurant","vegan":1,"tea":false,"cuisine":"singaporean","addr":"135 West 50th Street"},{"id":"n10600023467","name":"Chipotle","lat":40.671199,"lng":-73.977787,"cat":"restaurant","vegan":1,"tea":false,"cuisine":"mexican","addr":"185 7th Avenue"},{"id":"n10632952972","name":"La Masa Restaurant","lat":40.842787,"lng":-73.849161,"cat":"restaurant","vegan":1,"tea":false,"cuisine":"colombian;comfort;spanish;latin_american;empanada;lunch;catering;street_food","addr":"2542 East Tremont Avenue"},{"id":"n10689545494","name":"Wolfnights - The Gourmet Wrap","lat":40.730663,"lng":-74.000354,"cat":"restaurant","vegan":1,"tea":false,"cuisine":"sandwich","addr":"121 West 3rd Street"},{"id":"n10689601294","name":"NaNa Thai Street","lat":40.739576,"lng":-73.988529,"cat":"restaurant","vegan":1,"tea":false,"cuisine":"thai","addr":"31 East 21st Street"},{"id":"n10693951253","name":"Beatnic","lat":40.757797,"lng":-73.979009,"cat":"restaurant","vegan":1,"tea":false,"cuisine":"burger","addr":""},{"id":"n10703133903","name":"Dar 525","lat":40.711159,"lng":-73.950271,"cat":"restaurant","vegan":1,"tea":false,"cuisine":"mediterranean","addr":""},{"id":"n10742609217","name":"Uptown Veg 2","lat":40.809514,"lng":-73.944574,"cat":"restaurant","vegan":1,"tea":false,"cuisine":"","addr":"349 Malcolm X Boulevard"},{"id":"n10757661198","name":"Salma","lat":40.730241,"lng":-73.983807,"cat":"restaurant","vegan":1,"tea":false,"cuisine":"lebanese","addr":"351 East 12th Street"},{"id":"n10808947168","name":"Maya's Garden","lat":40.707288,"lng":-73.751884,"cat":"restaurant","vegan":1,"tea":false,"cuisine":"juice","addr":"205-31 Hollis Avenue"},{"id":"n10817753613","name":"Spicy Moon","lat":40.729402,"lng":-73.998266,"cat":"restaurant","vegan":1,"tea":false,"cuisine":"chinese","addr":"68 West 3rd Street"},{"id":"n10824737763","name":"pán","lat":40.69419,"lng":-73.902248,"cat":"restaurant","vegan":1,"tea":false,"cuisine":"italian;pizza","addr":"1563 Decatur Street"},{"id":"n10834126657","name":"Oregano Brooklyn","lat":40.71909,"lng":-73.958676,"cat":"restaurant","vegan":1,"tea":false,"cuisine":"italian;pizza","addr":"102 Berry Street"},{"id":"n10931164934","name":"Lo-Res","lat":40.716089,"lng":-73.962499,"cat":"restaurant","vegan":1,"tea":false,"cuisine":"american","addr":"136 Metropolitan Avenue"},{"id":"n10931164936","name":"Trees Lounge","lat":40.661574,"lng":-73.979681,"cat":"restaurant","vegan":1,"tea":false,"cuisine":"american","addr":"188 Prospect Park West"},{"id":"n10963340357","name":"Birch Coffee","lat":40.751005,"lng":-73.995127,"cat":"cafe","vegan":1,"tea":false,"cuisine":"","addr":""},{"id":"n10968102825","name":"La Chacra","lat":40.711411,"lng":-73.947627,"cat":"restaurant","vegan":1,"tea":false,"cuisine":"peruvian","addr":"613 Grand Street"},{"id":"n10982600247","name":"Bombay Chowk","lat":40.768746,"lng":-73.955064,"cat":"restaurant","vegan":1,"tea":false,"cuisine":"indian","addr":"1378 1st Avenue"},{"id":"n10982600249","name":"Mexiterranean Grill","lat":40.768797,"lng":-73.955493,"cat":"restaurant","vegan":1,"tea":false,"cuisine":"mediterranean;mexican","addr":"1365 1st Avenue"},{"id":"n10991141054","name":"Oda House","lat":40.768135,"lng":-73.954934,"cat":"restaurant","vegan":1,"tea":false,"cuisine":"georgian","addr":"406 East 73rd Street"},{"id":"n11040513632","name":"Vegan Hood","lat":40.802836,"lng":-73.956288,"cat":"restaurant","vegan":1,"tea":false,"cuisine":"","addr":"2100 Frederick Douglass Blvd"},{"id":"n11088424818","name":"Anixi Mediterranean Vegan Restaurant","lat":40.746275,"lng":-73.997522,"cat":"restaurant","vegan":2,"tea":false,"cuisine":"mediterranean","addr":"290 8th Avenue"},{"id":"n11152071680","name":"Wetzel's Pretzels","lat":40.684742,"lng":-73.977566,"cat":"restaurant","vegan":1,"tea":false,"cuisine":"pretzel","addr":""},{"id":"n11155025499","name":"16 Handles","lat":40.716003,"lng":-74.010042,"cat":"restaurant","vegan":1,"tea":false,"cuisine":"frozen_yogurt","addr":""},{"id":"n11159643910","name":"Vietspot","lat":40.710543,"lng":-74.007544,"cat":"restaurant","vegan":1,"tea":false,"cuisine":"vietnamese","addr":""},{"id":"n11170866943","name":"Van Leeuwen Ice Cream","lat":40.749431,"lng":-73.845145,"cat":"restaurant","vegan":1,"tea":false,"cuisine":"","addr":""},{"id":"n11175738709","name":"Sin City Burger","lat":40.771114,"lng":-73.955589,"cat":"restaurant","vegan":1,"tea":false,"cuisine":"","addr":""},{"id":"n11189011965","name":"Blue Park Kitchen","lat":40.706393,"lng":-74.007886,"cat":"restaurant","vegan":1,"tea":false,"cuisine":"","addr":""},{"id":"n11195043763","name":"Dreamery","lat":40.687559,"lng":-73.95938,"cat":"cafe","vegan":2,"tea":false,"cuisine":"ice_cream;mexican;breakfast","addr":"299 Greene Avenue"},{"id":"n11203438475","name":"Jupioca","lat":40.770369,"lng":-73.951433,"cat":"restaurant","vegan":1,"tea":false,"cuisine":"juice","addr":""},{"id":"n11203441739","name":"Kossar's Bagels & Bialys","lat":40.76896,"lng":-73.952426,"cat":"restaurant","vegan":1,"tea":false,"cuisine":"bagel","addr":""},{"id":"n11232603212","name":"Pizza Park","lat":40.76444,"lng":-73.958693,"cat":"restaurant","vegan":1,"tea":false,"cuisine":"pizza","addr":"1233 1st Avenue"},{"id":"n11236746435","name":"Chama Mama","lat":40.782218,"lng":-73.978765,"cat":"restaurant","vegan":1,"tea":false,"cuisine":"georgian","addr":"373 Amsterdam Avenue"},{"id":"n11241897898","name":"The Hummus & Pita Co.","lat":40.714546,"lng":-74.00682,"cat":"restaurant","vegan":1,"tea":false,"cuisine":"greek","addr":"79 Chambers Street"},{"id":"n11264964167","name":"Breeze","lat":40.723023,"lng":-73.950501,"cat":"restaurant","vegan":1,"tea":false,"cuisine":"chinese","addr":"595 Manhattan Avenue"},{"id":"n11270580267","name":"Ladybird","lat":40.726569,"lng":-73.98454,"cat":"restaurant","vegan":1,"tea":false,"cuisine":"asian","addr":"111 East 7th Street"},{"id":"n11270580268","name":"Cadence","lat":40.726539,"lng":-73.984476,"cat":"restaurant","vegan":1,"tea":false,"cuisine":"","addr":"111 East 7th Street"},{"id":"n11272446612","name":"Trader Joe's","lat":40.722647,"lng":-73.848109,"cat":"restaurant","vegan":1,"tea":false,"cuisine":"","addr":"69-65 Yellowstone Boulevard"},{"id":"n11278151804","name":"Sala Astoria","lat":40.75831,"lng":-73.928103,"cat":"restaurant","vegan":1,"tea":false,"cuisine":"spanish","addr":"34-39 31st Street"},{"id":"n11287350682","name":"Tbites","lat":40.751518,"lng":-73.970501,"cat":"restaurant","vegan":1,"tea":false,"cuisine":"middle_eastern","addr":"844 2nd Avenue"},{"id":"n11296394818","name":"Happy Malaysia Canteen","lat":40.716439,"lng":-73.997878,"cat":"restaurant","vegan":1,"tea":false,"cuisine":"malaysian","addr":""},{"id":"n11329746686","name":"Van Leeuwen Ice Cream","lat":40.717778,"lng":-74.010847,"cat":"restaurant","vegan":1,"tea":false,"cuisine":"","addr":""},{"id":"n11342852370","name":"The Upper Crust Queens","lat":40.733735,"lng":-73.825069,"cat":"restaurant","vegan":1,"tea":false,"cuisine":"pizza","addr":"67-11 Main Street"},{"id":"n11359386682","name":"Chakra","lat":40.726532,"lng":-73.988117,"cat":"restaurant","vegan":2,"tea":false,"cuisine":"thai;indian","addr":"317 East 5th Street"},{"id":"n11405903375","name":"Le Gourmet","lat":40.76548,"lng":-73.957923,"cat":"restaurant","vegan":1,"tea":false,"cuisine":"italian;pizza;sandwich;burger;salad","addr":"1267 1st Avenue"},{"id":"n11405963746","name":"Matsu II","lat":40.766208,"lng":-73.956028,"cat":"restaurant","vegan":1,"tea":false,"cuisine":"sushi;japanese","addr":"411 East 70th Street"},{"id":"n11433238611","name":"Délice & Sarrasin","lat":40.728746,"lng":-74.00315,"cat":"restaurant","vegan":2,"tea":false,"cuisine":"french","addr":"178 West Houston Street"},{"id":"n11445034900","name":"Matto Espresso","lat":40.715154,"lng":-74.00569,"cat":"cafe","vegan":1,"tea":false,"cuisine":"coffee_shop","addr":"299 Broadway"},{"id":"n11463577704","name":"Sunday C&C Eatery","lat":40.726619,"lng":-73.992,"cat":"restaurant","vegan":2,"tea":false,"cuisine":"eclectic","addr":""},{"id":"n11511632632","name":"Le Petit Monstre","lat":40.696348,"lng":-73.967684,"cat":"restaurant","vegan":1,"tea":false,"cuisine":"","addr":"82 Washington Avenue"},{"id":"n11512084768","name":"Reverie","lat":40.716275,"lng":-73.962251,"cat":"restaurant","vegan":1,"tea":false,"cuisine":"","addr":"135 Metropolitan Avenue"},{"id":"n11532221724","name":"Jalsa","lat":40.638265,"lng":-73.968714,"cat":"restaurant","vegan":1,"tea":false,"cuisine":"indian","addr":"786 Coney Island Avenue"},{"id":"n11558119422","name":"Beyond Sushi - Vegan Restaurant","lat":40.752466,"lng":-73.988455,"cat":"restaurant","vegan":2,"tea":false,"cuisine":"asian","addr":"134 West 37th Street"},{"id":"n11564047840","name":"Miss Wonton","lat":40.76899,"lng":-73.952403,"cat":"restaurant","vegan":1,"tea":false,"cuisine":"chinese","addr":""},{"id":"n11608604958","name":"Yondu Culinary Studio","lat":40.708373,"lng":-74.000618,"cat":"restaurant","vegan":1,"tea":false,"cuisine":"","addr":""},{"id":"n11627501943","name":"Saravanaa Bhavan","lat":40.783589,"lng":-73.977765,"cat":"restaurant","vegan":1,"tea":false,"cuisine":"indian;south_indian","addr":"413 Amsterdam Avenue"},{"id":"n11679760934","name":"Beatnic","lat":40.722742,"lng":-73.997134,"cat":"restaurant","vegan":1,"tea":false,"cuisine":"burger","addr":"240 Lafayette Street"},{"id":"n11706750747","name":"Kuu","lat":40.76569,"lng":-73.957746,"cat":"restaurant","vegan":1,"tea":false,"cuisine":"japanese","addr":"1275 1st Avenue"},{"id":"n11728839925","name":"Emack & Bolio's","lat":40.756965,"lng":-73.967219,"cat":"restaurant","vegan":1,"tea":false,"cuisine":"","addr":"1005 2nd Avenue"},{"id":"n11729264202","name":"Adyar Ananda Bhavan","lat":40.759301,"lng":-73.962386,"cat":"restaurant","vegan":1,"tea":false,"cuisine":"indian","addr":"1071 1st Avenue"},{"id":"n11772541596","name":"Taboonette","lat":40.694455,"lng":-73.993821,"cat":"restaurant","vegan":1,"tea":false,"cuisine":"mediterranean","addr":""},{"id":"n11800209769","name":"Long Island Dumplings","lat":40.736975,"lng":-73.997377,"cat":"restaurant","vegan":1,"tea":false,"cuisine":"dim_sum;chinese","addr":""},{"id":"n11824920848","name":"Soul Kofa","lat":40.681532,"lng":-73.92229,"cat":"restaurant","vegan":1,"tea":false,"cuisine":"","addr":""},{"id":"n11836242465","name":"Yuki's","lat":40.746964,"lng":-74.03782,"cat":"cafe","vegan":1,"tea":false,"cuisine":"","addr":""},{"id":"n11867099054","name":"Jajaja Mexicana","lat":40.729815,"lng":-74.004554,"cat":"restaurant","vegan":1,"tea":false,"cuisine":"mexican","addr":""},{"id":"n11870018285","name":"Chicago's Pizza With-A-Twist","lat":40.693464,"lng":-73.829493,"cat":"restaurant","vegan":1,"tea":false,"cuisine":"pizza","addr":""},{"id":"n11897453324","name":"Tokuyamatcha Onigirazubar","lat":40.72398,"lng":-73.98017,"cat":"cafe","vegan":1,"tea":false,"cuisine":"","addr":""},{"id":"n11907628901","name":"Odd Fellows Ice Cream","lat":40.741661,"lng":-74.001387,"cat":"restaurant","vegan":1,"tea":false,"cuisine":"","addr":"141 8th Avenue"},{"id":"n11938485145","name":"Ridgewood Taco Factory","lat":40.704881,"lng":-73.901841,"cat":"restaurant","vegan":1,"tea":false,"cuisine":"mexican;tacos","addr":"66-89 Forest Avenue"},{"id":"n11963618919","name":"Addey Ababa","lat":40.850578,"lng":-73.937696,"cat":"restaurant","vegan":1,"tea":false,"cuisine":"ethiopian","addr":"736 West 181st Street"},{"id":"n11968218727","name":"HaaM","lat":40.707503,"lng":-73.950372,"cat":"restaurant","vegan":2,"tea":false,"cuisine":"dominican;trinidadian","addr":"234 Union Avenue"},{"id":"n11986335291","name":"Juice Press","lat":40.772048,"lng":-73.958676,"cat":"restaurant","vegan":1,"tea":false,"cuisine":"juice","addr":""},{"id":"n12094414981","name":"Fat Choy","lat":40.892808,"lng":-73.97343,"cat":"restaurant","vegan":1,"tea":false,"cuisine":"","addr":"52 East Palisade Avenue"},{"id":"n12101637699","name":"Figo Il Gelato Italiano","lat":40.729313,"lng":-74.001216,"cat":"restaurant","vegan":1,"tea":false,"cuisine":"","addr":"93 Mac Dougal Street"},{"id":"n12116929032","name":"Morelia Paletas","lat":40.748319,"lng":-74.027792,"cat":"restaurant","vegan":1,"tea":false,"cuisine":"","addr":"932 Washington Street"},{"id":"n12133056410","name":"Urban Vegan Roots","lat":40.758384,"lng":-73.928045,"cat":"restaurant","vegan":1,"tea":false,"cuisine":"","addr":"34-39 31st Street"},{"id":"n12200027413","name":"La Pizza Italia","lat":40.760784,"lng":-73.96134,"cat":"restaurant","vegan":1,"tea":false,"cuisine":"pizza;italian;chicken","addr":"1109 1st Avenue"},{"id":"n12244830003","name":"Align Coffee","lat":40.708291,"lng":-73.953411,"cat":"restaurant","vegan":1,"tea":false,"cuisine":"coffee_shop;pancake;savory_pancakes","addr":"319 Hooper Street"},{"id":"n12247152956","name":"Hello, Yam!","lat":40.727499,"lng":-73.982914,"cat":"restaurant","vegan":1,"tea":false,"cuisine":"japanese;sweet_potato","addr":"4432 East 9th Street"},{"id":"n12307257374","name":"Urban Vegan Kitchen","lat":40.745172,"lng":-73.997689,"cat":"restaurant","vegan":2,"tea":false,"cuisine":"","addr":""},{"id":"n12324390279","name":"Apna Pind","lat":40.725298,"lng":-73.987581,"cat":"restaurant","vegan":1,"tea":false,"cuisine":"indian","addr":"128 East 4th Street"},{"id":"n12373675569","name":"Le Basque French Vegan Restaurant","lat":40.736072,"lng":-73.991864,"cat":"restaurant","vegan":1,"tea":false,"cuisine":"french;spanish","addr":"15 Union Square West"},{"id":"n12492931375","name":"Cloudy Donuts","lat":40.721864,"lng":-73.995478,"cat":"restaurant","vegan":2,"tea":false,"cuisine":"donut","addr":"209 Mott Street"},{"id":"n12662627901","name":"Sentir Vegan Mexican Restaurant","lat":40.740027,"lng":-73.993173,"cat":"restaurant","vegan":1,"tea":false,"cuisine":"mexican","addr":"37 West 19th Street"},{"id":"n12684907461","name":"Mrs Green Salad & Juice","lat":40.731707,"lng":-73.983844,"cat":"restaurant","vegan":1,"tea":false,"cuisine":"smoothie;juice;salad","addr":""},{"id":"n12720721096","name":"Paradise Gourmet Deli & Grill","lat":40.72752,"lng":-73.979284,"cat":"restaurant","vegan":1,"tea":false,"cuisine":"breakfast;sandwich;snack","addr":"175 Avenue B"},{"id":"n12842971177","name":"Mr Taco","lat":40.681928,"lng":-73.911705,"cat":"restaurant","vegan":1,"tea":false,"cuisine":"mexican","addr":""},{"id":"n12855775402","name":"Son del North","lat":40.730137,"lng":-74.002701,"cat":"restaurant","vegan":1,"tea":false,"cuisine":"mexican","addr":"26 Carmine Street"},{"id":"n12866882565","name":"Bengal Tiger","lat":40.765598,"lng":-73.982597,"cat":"restaurant","vegan":1,"tea":false,"cuisine":"indian","addr":""},{"id":"n12873249543","name":"Mei Mei","lat":40.597003,"lng":-73.941426,"cat":"restaurant","vegan":1,"tea":false,"cuisine":"chinese","addr":"3566 Nostrand Avenue"},{"id":"n12915135055","name":"Oakberry Acai","lat":40.751265,"lng":-73.986448,"cat":"restaurant","vegan":1,"tea":false,"cuisine":"health_food;juice","addr":"986 6th Avenue"},{"id":"n12917611587","name":"Himalayan Curry House","lat":40.757224,"lng":-73.968584,"cat":"restaurant","vegan":1,"tea":false,"cuisine":"indian;nepali","addr":""},{"id":"n12921924710","name":"Marwin Thai","lat":40.761566,"lng":-73.960325,"cat":"restaurant","vegan":1,"tea":false,"cuisine":"thai","addr":""},{"id":"n12947494289","name":"Cha Cha Matcha","lat":40.751689,"lng":-73.995437,"cat":"cafe","vegan":1,"tea":false,"cuisine":"matcha","addr":""},{"id":"n12980136947","name":"Saffron Indian Cuisine","lat":40.757285,"lng":-73.915681,"cat":"restaurant","vegan":1,"tea":false,"cuisine":"indian","addr":""},{"id":"n12987742065","name":"Fusion East","lat":40.655876,"lng":-73.873397,"cat":"restaurant","vegan":1,"tea":false,"cuisine":"caribbean;soul_food","addr":"1179 Elton Street"},{"id":"n12987788601","name":"Third Kingdom","lat":40.728626,"lng":-73.989373,"cat":"restaurant","vegan":1,"tea":false,"cuisine":"","addr":"23 East 7th Street"},{"id":"n13059835526","name":"Yummy Chinese","lat":40.664301,"lng":-73.950855,"cat":"restaurant","vegan":1,"tea":false,"cuisine":"chinese","addr":""},{"id":"n13059835527","name":"Dragon King","lat":40.661741,"lng":-73.950902,"cat":"restaurant","vegan":1,"tea":false,"cuisine":"chinese","addr":""},{"id":"n13067634242","name":"Tanoreen","lat":40.630815,"lng":-74.027888,"cat":"restaurant","vegan":1,"tea":false,"cuisine":"middle_eastern;palestinian","addr":"7523 3rd Avenue"},{"id":"n13071569270","name":"The Panorama of My Silence - Heart","lat":40.71229,"lng":-73.806377,"cat":"cafe","vegan":1,"tea":false,"cuisine":"","addr":"84-73 Parsons Boulevard"},{"id":"n13071621337","name":"Smile of the Beyond","lat":40.709184,"lng":-73.804864,"cat":"restaurant","vegan":1,"tea":false,"cuisine":"diner","addr":"86-14 Parsons Boulevard"},{"id":"n13076933001","name":"Empanadas Cafe","lat":40.740238,"lng":-73.853175,"cat":"restaurant","vegan":1,"tea":false,"cuisine":"coffee_shop;spanish","addr":"56-27 Van Doren Street"},{"id":"n13108144554","name":"The Migrant Kitchen","lat":40.75027,"lng":-73.844957,"cat":"restaurant","vegan":1,"tea":false,"cuisine":"","addr":""},{"id":"n13108144555","name":"San Matteo NYC","lat":40.750226,"lng":-73.844975,"cat":"restaurant","vegan":1,"tea":false,"cuisine":"pizza","addr":""},{"id":"n13108144559","name":"Van Leeuwen","lat":40.750059,"lng":-73.845044,"cat":"restaurant","vegan":1,"tea":false,"cuisine":"","addr":""},{"id":"n13108144561","name":"Poké Yachty","lat":40.749924,"lng":-73.8451,"cat":"restaurant","vegan":1,"tea":false,"cuisine":"poke","addr":""},{"id":"n13248217771","name":"Madras Dosa Co.","lat":40.756126,"lng":-73.97031,"cat":"restaurant","vegan":1,"tea":false,"cuisine":"indian","addr":"829 3rd Avenue"},{"id":"n13250232453","name":"DÙNDÚ","lat":40.750353,"lng":-73.976037,"cat":"restaurant","vegan":1,"tea":false,"cuisine":"nigerian","addr":"140 East 41st Street"},{"id":"n13324633698","name":"Wok in Duane","lat":40.717503,"lng":-74.010143,"cat":"restaurant","vegan":1,"tea":false,"cuisine":"asian","addr":""},{"id":"n13370403665","name":"Tofubox","lat":40.711248,"lng":-73.946796,"cat":"restaurant","vegan":1,"tea":false,"cuisine":"chinese","addr":""},{"id":"n13370403666","name":"Lucy's Vietnamese","lat":40.711532,"lng":-73.946328,"cat":"restaurant","vegan":1,"tea":false,"cuisine":"vietnamese","addr":""},{"id":"n13429529829","name":"Ippudo V","lat":40.700359,"lng":-73.987913,"cat":"restaurant","vegan":2,"tea":false,"cuisine":"ramen","addr":""},{"id":"n13514824809","name":"LuAnne's Wild Ginger","lat":40.720498,"lng":-73.996443,"cat":"restaurant","vegan":2,"tea":false,"cuisine":"","addr":""},{"id":"n13517110254","name":"Ananda","lat":40.728775,"lng":-73.999252,"cat":"restaurant","vegan":1,"tea":false,"cuisine":"indian","addr":"210 Thompson Street"},{"id":"n13618352951","name":"Taste Of Delicatessen","lat":40.70769,"lng":-74.013863,"cat":"restaurant","vegan":1,"tea":false,"cuisine":"breakfast;sandwich","addr":""},{"id":"n13669013437","name":"UThai","lat":40.728216,"lng":-73.863919,"cat":"restaurant","vegan":1,"tea":false,"cuisine":"thai","addr":""},{"id":"n13723221049","name":"Little Plaza Pizza","lat":40.654905,"lng":-73.96143,"cat":"restaurant","vegan":1,"tea":false,"cuisine":"pizza","addr":"188 Parkside Avenue"},{"id":"n13841010268","name":"Lalyn","lat":40.752423,"lng":-73.991681,"cat":"restaurant","vegan":1,"tea":false,"cuisine":"thai","addr":""},{"id":"n13885523903","name":"Four Seasons","lat":40.65064,"lng":-73.956186,"cat":"restaurant","vegan":1,"tea":false,"cuisine":"caribbean","addr":"2281 Church Avenue"},{"id":"n13929988175","name":"Naya","lat":40.701853,"lng":-73.986531,"cat":"restaurant","vegan":1,"tea":false,"cuisine":"middle_eastern","addr":""},{"id":"n13945233521","name":"Spice & Sweets Corner","lat":40.74305,"lng":-73.981975,"cat":"restaurant","vegan":2,"tea":false,"cuisine":"","addr":""},{"id":"w241832442","name":"Flatbush Food Coop","lat":40.641288,"lng":-73.964738,"cat":"restaurant","vegan":1,"tea":false,"cuisine":"","addr":"1415 Cortelyou Road"},{"id":"w241843134","name":"Two Boots","lat":40.674197,"lng":-73.982434,"cat":"restaurant","vegan":1,"tea":false,"cuisine":"pizza","addr":"284 5th Avenue"},{"id":"w248171332","name":"Surfish","lat":40.668645,"lng":-73.993636,"cat":"restaurant","vegan":1,"tea":false,"cuisine":"peruvian","addr":"550 3rd Avenue"},{"id":"w248266658","name":"Annam Brahma","lat":40.712815,"lng":-73.801184,"cat":"restaurant","vegan":1,"tea":false,"cuisine":"indian","addr":"84-43 164th Street"},{"id":"w248841439","name":"Chipotle","lat":40.583301,"lng":-73.986762,"cat":"restaurant","vegan":1,"tea":false,"cuisine":"mexican","addr":"2940 Cropsey Avenue"},{"id":"w249634654","name":"Nitehawk","lat":40.66162,"lng":-73.979846,"cat":"activity","vegan":1,"tea":false,"cuisine":"american","addr":"188 Prospect Park West"},{"id":"w250317185","name":"Greedi Vegan","lat":40.676343,"lng":-73.952232,"cat":"restaurant","vegan":1,"tea":false,"cuisine":"","addr":"1031 Bergen Street"},{"id":"w266926747","name":"Sweetgreen","lat":40.778028,"lng":-73.954921,"cat":"restaurant","vegan":1,"tea":false,"cuisine":"salad","addr":"1500 3rd Avenue"},{"id":"w279647094","name":"Lella Alimentari","lat":40.711899,"lng":-73.957178,"cat":"restaurant","vegan":2,"tea":false,"cuisine":"italian","addr":"141 Havemeyer Street"},{"id":"w279664956","name":"Loving Hut","lat":40.712518,"lng":-73.941197,"cat":"restaurant","vegan":2,"tea":false,"cuisine":"international","addr":"76 Bushwick Avenue"},{"id":"w279777009","name":"Monarch","lat":40.71591,"lng":-73.962252,"cat":"restaurant","vegan":1,"tea":false,"cuisine":"asian","addr":"146 Metropolitan Avenue"},{"id":"w280081506","name":"Vegan QuickBites by Next Stop Vegan","lat":40.725011,"lng":-73.951726,"cat":"restaurant","vegan":1,"tea":false,"cuisine":"","addr":"685 Manhattan Avenue"},{"id":"w522116263","name":"Starbucks","lat":40.855306,"lng":-74.043484,"cat":"cafe","vegan":1,"tea":false,"cuisine":"coffee_shop","addr":"300 US 46"},{"id":"w553124838","name":"Panda House","lat":40.756352,"lng":-74.043385,"cat":"restaurant","vegan":1,"tea":false,"cuisine":"chinese","addr":"422 Paterson Plank Road"},{"id":"w553667640","name":"Coach House Diner","lat":40.760308,"lng":-74.044299,"cat":"restaurant","vegan":1,"tea":false,"cuisine":"diner","addr":"921 John F. Kennedy Boulevard"},{"id":"w587875035","name":"White Castle","lat":40.7767,"lng":-74.028722,"cat":"restaurant","vegan":1,"tea":false,"cuisine":"burger","addr":""},{"id":"w926954130","name":"Seitan's Helper","lat":40.704107,"lng":-73.931122,"cat":"cafe","vegan":1,"tea":false,"cuisine":"sandwich","addr":"2 Morgan Avenue"},{"id":"w975290222","name":"Route 66 Smokehouse","lat":40.704083,"lng":-74.010409,"cat":"restaurant","vegan":1,"tea":false,"cuisine":"american;barbecue","addr":"79 Pearl Street"},{"id":"n1030333135","name":"Empire Coffee & Tea Co.","lat":40.741349,"lng":-74.030702,"cat":"cafe","vegan":0,"tea":true,"cuisine":"coffee_shop;tea","addr":"338 Bloomfield Street"},{"id":"n1346386984","name":"Smith & Wollensky","lat":40.755255,"lng":-73.970951,"cat":"restaurant","vegan":0,"tea":false,"cuisine":"steak_house","addr":"797 3rd Avenue"},{"id":"n1707825812","name":"Uncle Jack's","lat":40.753721,"lng":-73.995808,"cat":"restaurant","vegan":0,"tea":false,"cuisine":"steak_house","addr":""},{"id":"n2017705420","name":"Teazzi","lat":40.741314,"lng":-73.881337,"cat":"cafe","vegan":0,"tea":true,"cuisine":"","addr":"82-78 Broadway"},{"id":"n2027166578","name":"Riverdale Steak House","lat":40.906708,"lng":-73.903879,"cat":"restaurant","vegan":0,"tea":false,"cuisine":"steak_house","addr":"5700 Riverdale Avenue"},{"id":"n2045635524","name":"CoCo Fresh Tea & Juice","lat":40.74015,"lng":-73.984507,"cat":"cafe","vegan":0,"tea":true,"cuisine":"bubble_tea","addr":"38B Lexington Avenue"},{"id":"n2063692214","name":"Segovia","lat":40.852045,"lng":-74.041966,"cat":"restaurant","vegan":0,"tea":false,"cuisine":"steak_house","addr":""},{"id":"n2114001662","name":"Outback Steakhouse","lat":40.742262,"lng":-73.991796,"cat":"restaurant","vegan":0,"tea":false,"cuisine":"american;steak","addr":""},{"id":"n2134025590","name":"Del Frisco's Double Eagle Steakhouse","lat":40.759324,"lng":-73.98166,"cat":"restaurant","vegan":0,"tea":false,"cuisine":"steak_house","addr":"1221 6th Avenue"},